ML Catalog Number,Format,Common Name,Scientific Name,Background Species,Recordist,Date,Year,Month,Day,Time,Country,Country-State-County,State,County,Locality,Latitude,Longitude,Age/Sex,Behaviors,Playback,Captive,Collected,Specimen ID,Home Archive Catalog Number,Recorder,Microphone,Accessory,Partner Institution,eBird Checklist ID,Unconfirmed,Air Temp(°C),Water Temp(°C),Media notes,Observation Details,Parent Species,eBird Species Code,Taxon Category,Taxonomic Sort,Recordist 2,Average Community Rating,Number of Ratings,Asset Tags,Original Image Height,Original Image Width
631763236,Audio,Black-capped Chickadee,Poecile atricapillus,,Sarah Bowman,2025-03-07,2025,3,7,1510,Canada,CA-ON-WT,Ontario,Waterloo,"King East, Kitchener, ON, Canada",43.4473340,-80.4802320,Adult – 2,Call,Unspecified,"","",,,Recorded as video with Panasonic Lumix DC-FZ80 camera.,,Converted to audio with online converter.,,S217088531,"",,,"Two adults are scolding my cat that has ventured into the tree. The cat is on a leash. I don't let it get to the birds. The birds calm down when the cat comes out of the tree. ","I saw them in tree, also flying.",Poecile atricapillus,bkcchi,Species,21841,,.00,0,"",,
631763235,Audio,Black-capped Chickadee,Poecile atricapillus,,Sarah Bowman,2025-03-07,2025,3,7,1510,Canada,CA-ON-WT,Ontario,Waterloo,"King East, Kitchener, ON, Canada",43.4473340,-80.4802320,Adult – 2,Call,Unspecified,"","",,,Recorded as video with Panasonic Lumix DC-FZ80 camera.,,Converted to audio with online converter.,,S217088531,"",,,Children are heard in the background.,"I saw them in tree, also flying.",Poecile atricapillus,bkcchi,Species,21841,,3.00,1,"",,
631755166,Audio,Black-capped Chickadee,Poecile atricapillus,,William McClellan,2025-03-07,2025,3,7,959,United States,US-WI-117,Wisconsin,Sheboygan,Arthur Jerving Conservancy,43.7024387,-87.7105243,"",,Unspecified,"","",,,,,,,S217053711,"",,,,,Poecile atricapillus,bkcchi,Species,21841,,.00,0,,,
631754257,Audio,Black-capped Chickadee,Poecile atricapillus,,David Wheeler,2024-04-02,2024,4,2,1205,United States,US-UT-035,Utah,Salt Lake,"Salt Lake City -- Chateau Wheeler, Sugarhouse",40.7231678,-111.8628298,"",Song,Unspecified,"","",,,iPhone,none,,,S166952049,"",,,,,Poecile atricapillus,bkcchi,Species,21841,,3.00,1,"",,
631754258,Audio,Black-capped Chickadee,Poecile atricapillus,,David Wheeler,2024-04-02,2024,4,2,1205,United States,US-UT-035,Utah,Salt Lake,"Salt Lake City -- Chateau Wheeler, Sugarhouse",40.7231678,-111.8628298,"",Song,Unspecified,"","",,,iPhone,none,,,S166952049,"",,,,,Poecile atricapillus,bkcchi,Species,21841,,4.00,1,"",,
631750148,Audio,Black-capped Chickadee,Poecile atricapillus,,Sarah Bowman,2025-03-07,2025,3,7,925,Canada,CA-ON-WT,Ontario,Waterloo,"King East, Kitchener, ON, Canada",43.4473340,-80.4802320,Adult – 1,Song,Unspecified,"","",,,Recorded as video with Panasonic Lumix DC-FZ80 camera.,,Converted to audio with online converter.,,S217036505,"",,,"Also wind and wind-chimes. By the time I got away from other sounds, the bird was gone. ",I heard them. I think there were two.,Poecile atricapillus,bkcchi,Species,21841,,3.00,1,"",,
631750149,Audio,Black-capped Chickadee,Poecile atricapillus,,Sarah Bowman,2025-03-07,2025,3,7,925,Canada,CA-ON-WT,Ontario,Waterloo,"King East, Kitchener, ON, Canada",43.4473340,-80.4802320,Adult – 1,Call,Unspecified,"","",,,Recorded as video with Panasonic Lumix DC-FZ80 camera.,,Converted to audio with online converter.,,S217036505,"",,,,I heard them. I think there were two.,Poecile atricapillus,bkcchi,Species,21841,,4.00,1,"",,
631750141,Audio,Black-capped Chickadee,Poecile atricapillus,"Cardinalis cardinalis -- Northern Cardinal; Zonotrichia albicollis -- White-throated Sparrow; Cyanocitta cristata -- Blue Jay",Chris Wood,2025-02-23,2025,2,23,652,United States,US-NY-103,New York,Suffolk,Eastport Lake (aka Seatuck Creek),40.8277092,-72.7276897,"",Call,Not Used,"","",,,iPhone 15 Pro Max,iPhone 15 Pro Max,,,S214985953,"",,,Calls from a Black-capped Chickadee with a car going past in background.,,Poecile atricapillus,bkcchi,Species,21841,,2.00,1,"",,
631730734,Audio,Black-capped Chickadee,Poecile atricapillus,,Richard Fleming,2025-03-06,2025,3,6,1047,United States,US-NY-047,New York,Kings,Floyd Bennett Field--Ecology Village Area,40.5863535,-73.8851488,"",Call,Not Used,"","",,,iPhone SE 3G,,,,S216914120,"",,,Heavy low cut below 500 to combat typical iPhone wind noise. No significant impact to frequencies of the calls.,,Poecile atricapillus,bkcchi,Species,21841,,3.00,1,"",,
631715764,Audio,Black-capped Chickadee,Poecile atricapillus,"Quiscalus quiscula -- Common Grackle; Agelaius phoeniceus -- Red-winged Blackbird; Melospiza melodia -- Song Sparrow; Cardinalis cardinalis -- Northern Cardinal; Sturnus vulgaris -- European Starling",Andrew W.,2025-03-01,2025,3,1,1555,United States,US-MA-017,Massachusetts,Middlesex,Woburn Community Gardens,42.4736361,-71.1680778,"",,Unspecified,"","",,,,,,,S216110982,"",,,,,Poecile atricapillus,bkcchi,Species,21841,,.00,0,,,
631708546,Audio,Black-capped Chickadee,Poecile atricapillus,,Michael Morin,2025-03-06,2025,3,6,1045,United States,US-IL-129,Illinois,Menard,"11096 Knoles Rd, Petersburg US-IL 39.91996, -89.81665",39.9199640,-89.8166470,"",,Unspecified,"","",,,,,,,S216896572,"",,,,,Poecile atricapillus,bkcchi,Species,21841,,.00,0,,,
631675073,Audio,Black-capped Chickadee,Poecile atricapillus,"Agelaius phoeniceus [phoeniceus Group] -- Red-winged Blackbird (Red-winged); Corvus brachyrhynchos -- American Crow",Blaine Carnes,2025-03-05,2025,3,5,1524,United States,US-NY-109,New York,Tompkins,Sapsucker Woods,42.4787599,-76.4529133,Adult – 3,Call,Not Used,"","",,,Tascam DR-100MKIII,Rode NTG2,,,S216785213,"",,,Wind noise throughout recording.,,Poecile atricapillus,bkcchi,Species,21841,,2.00,1,"",,
631675066,Audio,Black-capped Chickadee,Poecile atricapillus,"Agelaius phoeniceus [phoeniceus Group] -- Red-winged Blackbird (Red-winged); Sitta carolinensis carolinensis -- White-breasted Nuthatch (Eastern)",Blaine Carnes,2025-03-05,2025,3,5,1524,United States,US-NY-109,New York,Tompkins,Sapsucker Woods,42.4787599,-76.4529133,Adult – 2,Call,Not Used,"","",,,Tascam DR-100MKIII,Rode NTG2,,,S216785213,"",,,Different set of birds than the other recordings on this list. Wind noise throughout recording.,,Poecile atricapillus,bkcchi,Species,21841,,2.00,1,"",,
631675060,Audio,Black-capped Chickadee,Poecile atricapillus,Agelaius phoeniceus [phoeniceus Group] -- Red-winged Blackbird (Red-winged),Blaine Carnes,2025-03-05,2025,3,5,1524,United States,US-NY-109,New York,Tompkins,Sapsucker Woods,42.4787599,-76.4529133,Adult – 2,Call,Not Used,"","",,,Tascam DR-100MKIII,Rode NTG2,,,S216785213,"",,,Wind noise throughout recording.,,Poecile atricapillus,bkcchi,Species,21841,,2.00,1,"",,
631670719,Audio,Black-capped Chickadee,Poecile atricapillus,,Brian Henderson,2022-11-01,2022,11,1,1151,United States,US-PA-091,Pennsylvania,Montgomery,Morwood Rd. Yard,40.3226527,-75.4130501,"",Call,Not Used,"","",,,Samsung Galaxy S21/Merlin,,,,S121692105,"",,,,"Not the slam-dunkiest bird, but I think this is probably safe for Black-capped. Pretty distinct hockey stick wing pattern, very white and shaggy nape, relatively long/white-edged tail, relatively buffy flanks. All of these pics, but especially the second and third, were badly underexposed. Some color detail may have been lost in recovery.  I wish the recording were longer, but the call seems like a decent fit.  We were experiencing a Black-capped irruption at the time.",Poecile atricapillus,bkcchi,Species,21841,,2.00,1,"",,
631663151,Audio,Black-capped Chickadee,Poecile atricapillus,,Thomas Mudd,2025-03-05,2025,3,5,1059,United States,US-NY-121,New York,Wyoming,Beaver Meadow Audubon Center,42.6730027,-78.3831251,"",,Unspecified,"","",,,,,,,S216743927,"",,,,,Poecile atricapillus,bkcchi,Species,21841,,.00,0,,,
631649199,Audio,Black-capped Chickadee,Poecile atricapillus,,Marc-Andre Beaucher,2025-03-02,2025,3,2,1042,Canada,CA-BC-CK,British Columbia,Central Kootenay,Pilot Bay Provincial Park,49.6423268,-116.8671227,Adult – 5,Call,Unspecified,"","",,,iphone 14 Pro,Internal mic,n/a,,S216358609,"",,,,,Poecile atricapillus,bkcchi,Species,21841,,4.50,2,"",,
631635020,Audio,Black-capped Chickadee,Poecile atricapillus,,Stefan  Karkuff,2025-03-04,2025,3,4,1720,United States,US-PA-041,Pennsylvania,Cumberland,State Rd property,40.2107414,-77.0327372,"",,Unspecified,"","",,,,,,,S216653061,"",,,,"Singing fee-bay two note song, both in the morning and in the evening. It was hanging around all day and in the evening it also called, felt like a slower call than the chickadees we regularly have here and also identified by Merlin as black capped. Warm tones on the flanks, bright white cheek patch. Also hanging out by itself",Poecile atricapillus,bkcchi,Species,21841,,.00,0,,,
631634330,Audio,Black-capped Chickadee,Poecile atricapillus,Zonotrichia albicollis -- White-throated Sparrow,Vivian Young,2025-03-04,2025,3,4,1545,United States,US-NY-005,New York,Bronx,Franz Sigel Park,40.8235524,-73.9253916,"",Song,Not Used,"","",,,iPad mini,,,,S216650704,"",,,,Heard and identified by Merlin.,Poecile atricapillus,bkcchi,Species,21841,,3.00,1,"",,
631622958,Audio,Black-capped Chickadee,Poecile atricapillus,Cyanocitta cristata -- Blue Jay,Carey Purdon,2025-03-04,2025,3,4,818,Canada,CA-ON-RE,Ontario,Renfrew,"318 Berndt Road, Golden Lake, Ontario, CA (45.591, -77.276)",45.5914161,-77.2763044,Adult – 3,Song,Not Used,"","",,,Wavepad app. 32-bit Float,Android Samsung Galaxy S21. phone,Audacity: Normalized to -3 DB. ,,S216614799,"",,,A recording of  several songs of one of three BCCH perched on a roadside tree.  ,"Two BCCH were heard from the roadside trees. One was briefly sang several two note whistled songs, last note on a lower pitch as it perched on a white pine tree branch, then moved to the nearby trees as it continued to sing.",Poecile atricapillus,bkcchi,Species,21841,,2.00,1,"",,
631618909,Audio,Black-capped Chickadee,Poecile atricapillus,,Susan Hochgraf,2025-03-04,2025,3,4,1030,United States,US-CT-013,Connecticut,Tolland,"Myers Pond trail, Yale Myers Forest, Bigelow Hollow Rd, Union US-CT",41.9907730,-72.1285760,"",,Unspecified,"","",,,,,,,S216605826,"",,,,,Poecile atricapillus,bkcchi,Species,21841,,.00,0,,,
631612432,Audio,Black-capped Chickadee,Poecile atricapillus,,Bob Suter,2025-03-04,2025,3,4,749,United States,US-PA-045,Pennsylvania,Delaware,Delaware River--Hog Island Rd. (Delaware Co.),39.8584371,-75.2606074,"",,Unspecified,"","",,,,,,,S216575000,"",,,,"Seen and heard quite well at close range. Gave slow, low dee calls and cheeseburger song. May have recording and pics. Big head, messy bib and white hockey sticks on wings. Seen here 39.86022° N, 75.28096° W",Poecile atricapillus,bkcchi,Species,21841,,.00,0,,,
631599738,Audio,Black-capped Chickadee,Poecile atricapillus,"Cyanocitta cristata -- Blue Jay; Cardinalis cardinalis -- Northern Cardinal",Michael J Good,2025-03-03,2025,3,3,827,United States,US-ME-009,Maine,Hancock,"Old County Road, Alley Island Overlook,  Bar Harbor, Maine, US (44.415, -68.365)",44.4151905,-68.3650506,Adult Male – 1,"Courtship, Display, or Copulation; Song",Unspecified,"","",,,Android,,,,S216420007,"",,,,,Poecile atricapillus,bkcchi,Species,21841,,3.00,1,"",,
631554092,Audio,Black-capped Chickadee,Poecile atricapillus,,Diane Eubanks,2022-10-01,2022,10,1,1000,United States,US-IL-097,Illinois,Lake,"Diane's House in Antioch IL",42.4381441,-88.1369390,"",,Unspecified,"","",,,,,,,S216379449,"",,,,,Poecile atricapillus,bkcchi,Species,21841,,.00,0,,,
631554093,Audio,Black-capped Chickadee,Poecile atricapillus,,Diane Eubanks,2022-10-01,2022,10,1,1000,United States,US-IL-097,Illinois,Lake,"Diane's House in Antioch IL",42.4381441,-88.1369390,"",,Unspecified,"","",,,,,,,S216379449,"",,,,,Poecile atricapillus,bkcchi,Species,21841,,.00,0,,,
631553031,Audio,Black-capped Chickadee,Poecile atricapillus,,Steve Kinsley,2025-03-02,2025,3,2,1430,Canada,CA-ON-YO,Ontario,York,Queensville - Eves Farm,44.1558000,-79.4246120,Adult – 1,"Call; Foraging or Eating",Not Used,"","",,,iPhone XR,,,,S216316297,"",,,,,Poecile atricapillus,bkcchi,Species,21841,,4.00,1,"",,
631523614,Audio,Black-capped Chickadee,Poecile atricapillus,,Collin Smith,2025-03-02,2025,3,2,656,United States,US-WI-097,Wisconsin,Portage,Long Rd. Bog (Portage Co.),44.6342764,-89.7403193,"","Call; Song",Unspecified,"","",,,Zoom F3,Rode NTG5,Windjammer,,S216318570,"",,,Several chickadees foraging and singing by the parking lot area.  Filename: 210104_008_Tr1_hpf26-40-3_hpf101-40-3_trimmed_normalized_lpf-14969-20-3_hpf27-40-3_eq-down-below-1000hz-below-2000hz-below-150hz_BCCH.wav,,Poecile atricapillus,bkcchi,Species,21841,,5.00,1,"",,
631519264,Audio,Black-capped Chickadee,Poecile atricapillus,,Eric DeFonso 🦑,2023-04-14,2023,4,14,741,United States,US-CO-069,Colorado,Larimer,Lee Martinez Park,40.5960324,-105.0819111,"",,Unspecified,"","",,,,,,,S133702492,"",,,,,Poecile atricapillus,bkcchi,Species,21841,,5.00,1,,,
631518592,Audio,Black-capped Chickadee,Poecile atricapillus,,Dawn Zuengler,2025-03-02,2025,3,2,1130,United States,US-WI-025,Wisconsin,Dane,Spring Valley Road,43.1648366,-89.7327436,Unknown – 1,Call,Unspecified,"","",,,Sound Devices MIxPre-3 ii recorder,Sennheiser 8020 ,Parabola,,S216301848,"",,,The chickadee was in a bur oak tree calling across our property (oak savanna portion) to several other chickadees in distant trees.,,Poecile atricapillus,bkcchi,Species,21841,,.00,0,"",,
631513041,Audio,Black-capped Chickadee,Poecile atricapillus,,Andrew W.,2025-03-02,2025,3,2,1218,United States,US-MA-017,Massachusetts,Middlesex,Mount Vernon St.,42.4142547,-71.1729537,"",Call,Unspecified,"","",,,,,,,S216278488,"",,,,Pair has started to visit feeder together and chick-a-dee back and forth.,Poecile atricapillus,bkcchi,Species,21841,,.00,0,"",,
631508469,Audio,Black-capped Chickadee,Poecile atricapillus,"Baeolophus bicolor -- Tufted Titmouse; Cardinalis cardinalis -- Northern Cardinal",Brian Henderson,2025-02-22,2025,2,22,915,United States,US-PA-115,Pennsylvania,Susquehanna,Potter Rd.,41.7593546,-75.7853591,"",Call,Used,"","",,,Nikon D500,Rode VideoMic NTG,,,S214904995,"",,,,A couple of these were eating sumac berries.,Poecile atricapillus,bkcchi,Species,21841,,3.00,1,"",,
631492657,Audio,Black-capped Chickadee,Poecile atricapillus,,Eric DeFonso 🦑,2023-03-19,2023,3,19,822,United States,US-CO-013,Colorado,Boulder,"3630 21st St, Boulder US-CO 40.04081, -105.27022",40.0408150,-105.2702250,"",,Unspecified,"","",,,,,,,S131283891,"",,,,,Poecile atricapillus,bkcchi,Species,21841,,5.00,1,,,
631486104,Audio,Black-capped Chickadee,Poecile atricapillus,,Eric Walters,2025-02-27,2025,2,27,1145,United States,US-IL-097,Illinois,Lake,Lyons Woods Forest Preserve (Lake Co.),42.4025000,-87.8324000,Adult – 1,Call,Used,"","",,,Android Samsung A15,GoorDik Wireless J3,,,S215720924,"",,,Black-capped Chickadee,,Poecile atricapillus,bkcchi,Species,21841,,5.00,1,"",,
631484105,Audio,Black-capped Chickadee,Poecile atricapillus,Sitta canadensis -- Red-breasted Nuthatch,Landon Graff,2025-03-01,2025,3,1,1043,United States,US-UT-045,Utah,Tooele,Ophir Canyon ,40.3785001,-112.2406518,"","",Not Used,"","",,,,,,,S216082998,"",,,,,Poecile atricapillus,bkcchi,Species,21841,,.00,0,"",,
631483312,Audio,Black-capped Chickadee,Poecile atricapillus,,Trevor Ricks,2025-03-01,2025,3,1,1632,United States,US-WY-023,Wyoming,Lincoln,"61 East 5th Avenue, Afton, Wyoming, US (42.723, -110.932)",42.7232645,-110.9315097,"",,Unspecified,"","",,,,,,,S216134133,"",,,,,Poecile atricapillus,bkcchi,Species,21841,,.00,0,,,
631477118,Audio,Black-capped Chickadee,Poecile atricapillus,,Scott Jubinville,2025-02-28,2025,2,28,1244,Canada,CA-AB-SI,Alberta,Calgary,Calgary--South Glenmore Park,50.9744450,-114.1215440,"",,Unspecified,"","",,,,,,,S215899797,"",,,,,Poecile atricapillus,bkcchi,Species,21841,,.00,0,,,
631473142,Audio,Black-capped Chickadee,Poecile atricapillus,,Kevin Seymour,2025-02-20,2025,2,20,1521,Canada,CA-ON-TI,Ontario,Timiskaming,Hilliardton Marsh Research and Education Centre,47.7403407,-79.6968091,"",,Unspecified,"","",,,,,,,S214593226,"",,,,,Poecile atricapillus,bkcchi,Species,21841,,.00,0,,,
631459242,Audio,Black-capped Chickadee,Poecile atricapillus,,Bernard Foy,2025-03-01,2025,3,1,1235,United States,US-VT-005,Vermont,Caledonia,"Cary Pond Rd, N. Danville",44.4838638,-72.1231855,"",,Unspecified,"","",,,,,,,S216070827,"",,,,First singing of the year,Poecile atricapillus,bkcchi,Species,21841,,.00,0,,,
631451190,Audio,Black-capped Chickadee,Poecile atricapillus,,Sam Stuart,2025-03-01,2025,3,1,849,United States,US-PA-091,Pennsylvania,Montgomery,The Hampshire Court,40.1643468,-75.5011818,"",Song,Unspecified,"","",,,,,,,S216020504,"",,,,"Singing its two note, descending song.",Poecile atricapillus,bkcchi,Species,21841,,3.00,1,"",,
631441997,Audio,Black-capped Chickadee,Poecile atricapillus,Branta canadensis -- Canada Goose,Scott Harris,2025-02-28,2025,2,28,736,United States,US-MA-017,Massachusetts,Middlesex,Great Meadows NWR--Concord Unit,42.4751409,-71.3295084,"",Call,Unspecified,"","",,,,,,,S215831685,"",,,,,Poecile atricapillus,bkcchi,Species,21841,,.00,0,"",,
631422056,Audio,Black-capped Chickadee,Poecile atricapillus,,Irene Crosland,2025-02-28,2025,2,28,905,Canada,CA-AB-TE,Alberta,Camrose-Lloydminister,Beaverhill Natural Area,53.3829700,-112.5169945,"",,Unspecified,"","",,,,,,,S215887063,"",,,,,Poecile atricapillus,bkcchi,Species,21841,,.00,0,,,
631422060,Audio,Black-capped Chickadee,Poecile atricapillus,,Richard Buist,2025-02-24,2025,2,24,1140,Canada,CA-MB-EL,Manitoba,Winnipeg,CA-MB-Winnipeg-31 Perry Bay,49.8907110,-97.0472990,"",,Unspecified,"","",,,,,,,S215924204,"",,,,,Poecile atricapillus,bkcchi,Species,21841,,.00,0,,,
631418832,Audio,Black-capped Chickadee,Poecile atricapillus,Sitta carolinensis -- White-breasted Nuthatch,Carey Purdon,2025-02-28,2025,2,28,1610,Canada,CA-ON-RE,Ontario,Renfrew,"665 Island View Drive, Golden Lake, Ontario, CA (45.59, -77.282)",45.5895161,-77.2824904,Adult – 10,"Call; Foraging or Eating",Not Used,"","",,,Wavepad app. 32-bit Float,Android Samsung Galaxy S21. phone,Audacity: Normalized to -3 DB. ,,S215915409,"",,,Ten BCCH were recorded at a feeder just before a snow storm.,"BCCH were active at the feeder. Several ""gurgle"" call notes were heard.",Poecile atricapillus,bkcchi,Species,21841,,3.00,1,"",,
631400306,Audio,Black-capped Chickadee,Poecile atricapillus,,Marianne Friers,2025-02-27,2025,2,27,1508,United States,US-NY-057,New York,Montgomery,Northview Farm,42.9451135,-74.3860857,"",,Unspecified,"","",,,,,,,S215729899,"",,,,,Poecile atricapillus,bkcchi,Species,21841,,3.00,1,,,
631362168,Audio,Black-capped Chickadee,Poecile atricapillus,,Nolan Kerr,2025-02-26,2025,2,26,1628,United States,US-MN-039,Minnesota,Dodge,Evergreen Cemetery--Mantorville,44.0617340,-92.7431510,Adult – 7,Call,Not Used,"","",,,,,,,S215604443,"",,,Mobbing at nothing,,Poecile atricapillus,bkcchi,Species,21841,,5.00,1,"",,
631317561,Audio,Black-capped Chickadee,Poecile atricapillus,,Nolan Kerr,2025-01-03,2025,1,3,1200,United States,US-MN-003,Minnesota,Anoka,"1074 93rd Avenue, Coon Rapids, Minnesota, US (45.139, -93.296)",45.1389132,-93.2960469,Adult – 1,Call,Not Used,"","",,,,,,,S207852698,"",,,,,Poecile atricapillus,bkcchi,Species,21841,,4.00,1,"",,
631291591,Audio,Black-capped Chickadee,Poecile atricapillus,,Zachary Frieben,2025-02-02,2025,2,2,1340,United States,US-MI-149,Michigan,St. Joseph,"Grandma Kathy's house",42.0080804,-85.7391810,"",,Unspecified,"","",,,,,,,S211844804,"",,,,,Poecile atricapillus,bkcchi,Species,21841,,.00,0,,,
631286148,Audio,Black-capped Chickadee,Poecile atricapillus,,Dave Belford,2025-01-11,2025,1,11,712,United States,US-PA-091,Pennsylvania,Montgomery,Gwynedd Wildlife Preserve (closed Tuesdays),40.1928858,-75.2744687,"",,Unspecified,"","",,,,,,,S208913453,"",,,,"a little larger and warmer looking than Carolina, bolder white hockey stick mark on wing, messier bib",Poecile atricapillus,bkcchi,Species,21841,,.00,0,,,
631285195,Audio,Black-capped Chickadee,Poecile atricapillus,,Rose Marie,2025-02-22,2025,2,22,730,United States,US-NJ-019,New Jersey,Hunterdon,Higginsville Road Neshanic Station NJ,40.5151268,-74.7795492,"",,Unspecified,"","",,,,,,,S214977586,"",,,,,Poecile atricapillus,bkcchi,Species,21841,,.00,0,,,
631284063,Audio,Black-capped Chickadee,Poecile atricapillus,,Dave Belford,2024-12-31,2024,12,31,1500,United States,US-PA-091,Pennsylvania,Montgomery,Home Base,40.1048861,-75.2697051,"",,Unspecified,"","",,,,,,,S207590172,"",,,,"calling and stopping by a feeder, a little larger and brighter than Carolina, messier bib, bold white hockey stick mark on the wings",Poecile atricapillus,bkcchi,Species,21841,,.00,0,,,
631282998,Audio,Black-capped Chickadee,Poecile atricapillus,,Mary Alice Koeneke,2025-02-25,2025,2,25,1059,United States,US-PA-019,Pennsylvania,Butler,"Winter Bird Survey #3 Saxonburg SE Cabot US-PA 40.75384, -79.75978",40.7538400,-79.7597820,"",Duet,Unspecified,"","",,,,,,,S215444946,"",,,,"3 had clear, white ""hockey stick in wings, called a typical chick-a-dee BCCH call at the northern end of the walk. A group of 4 chickadees near the southern end (about 1.5 miles south of Cabot) included 1 with no white in the wings, 1 with white in the wings and 2 others. Initially the “dueting” of two sounded like Carolina Chickadee; however, helpful review of the recording by someone more familiar leaned toward Black-capped Chickadee.",Poecile atricapillus,bkcchi,Species,21841,,.00,0,"",,
631281432,Audio,Black-capped Chickadee,Poecile atricapillus,,Carey Purdon,2025-02-25,2025,2,25,1609,Canada,CA-ON-RE,Ontario,Renfrew,"665 Island View Drive, Golden Lake, Ontario, CA (45.59, -77.282)",45.5895161,-77.2824904,Adult – 7,"Call; Foraging or Eating",Not Used,"","",,,Wavepad app. 32-bit Float,Android Samsung Galaxy S21. phone,Audacity: Normalized to -3 DB. ,,S215440004,"",,,"7 BCCH were at a feeder and one BCCH  calls were recorded as a second  distant BCCH seemed to respond to them. ""B"" notes at 3.1 and ? ""C"" note at 38.8 seconds.","BCCH were active at the feeders that had been replenished. On the recording many """"Psip"" contact call notes were seen which usually indicates ""calm/ non-alarmed"" BCCH and ""wing"" flutter notes of BCCH as it flew from the feeder at 11.9 seconds.. No "" gurgle"" notes were heard.",Poecile atricapillus,bkcchi,Species,21841,,4.00,1,"",,
631274299,Audio,Black-capped Chickadee,Poecile atricapillus,,Zachary Spatz,2025-02-25,2025,2,25,1317,United States,US-PA-011,Pennsylvania,Berks,North Park (Kutztown),40.5317670,-75.7855760,"",,Unspecified,"","",,,,,,,S215409299,"",,,,,Poecile atricapillus,bkcchi,Species,21841,,.00,0,,,
631272452,Audio,Black-capped Chickadee,Poecile atricapillus,,Larry Joseph,2025-02-25,2025,2,25,1114,Canada,CA-BC-KS,British Columbia,Kitimat-Stikine,Larry’s yard,55.2644660,-127.6522200,Adult,Song,Not Used,"","",,,iPhone 14,,,,S215413466,"",,,,,Poecile atricapillus,bkcchi,Species,21841,,4.00,1,"",,
631249911,Audio,Black-capped Chickadee,Poecile atricapillus,"Sitta canadensis -- Red-breasted Nuthatch; Turdus migratorius -- American Robin",Heikel B,2025-02-23,2025,2,23,707,Canada,CA-BC-GV,British Columbia,Metro Vancouver,Port Moody--Residence,49.2745608,-122.8806514,"",,Unspecified,"","",,,iPhone 12 mini,Rode VideoMic Me-L,,,S215067168,"",,,,,Poecile atricapillus,bkcchi,Species,21841,,.00,0,,,
631241426,Audio,Black-capped Chickadee,Poecile atricapillus,,Larry Joseph,2025-02-24,2025,2,24,1430,Canada,CA-BC-KS,British Columbia,Kitimat-Stikine,Larry’s yard,55.2644660,-127.6522200,Adult,"Foraging or Eating; Song",Not Used,"","",,,,,,,S215301065,"",,,,172 calls,Poecile atricapillus,bkcchi,Species,21841,,3.00,2,"",,
631239552,Audio,Black-capped Chickadee,Poecile atricapillus,Anas platyrhynchos -- Mallard,Mabel Bredahl,2025-02-21,2025,2,21,1500,Canada,CA-BC-CO,British Columbia,Central Okanagan,Kelowna--Munson Pond,49.8640484,-119.4603539,Unknown – 1,Call,Not Used,"","",,,,,,,S214747323,"",,,"""Chicka-dee dee!"" call. A bit off-sounding compared to the regular call.",,Poecile atricapillus,bkcchi,Species,21841,,.00,0,"",,
631232465,Audio,Black-capped Chickadee,Poecile atricapillus,,Daniel S.,2021-08-06,2021,8,6,1714,United States,US-VT-009,Vermont,Essex,"Moose Bog, Wenlock WMA",44.7640085,-71.7394073,Adult – 1,"Call; Song",Not Used,"","",,,iPhone,,,,S92867704,"",,,Bird seen. Recorded with iPhone Voice Memos. Audio was added on 24 Feb 2025.,,Poecile atricapillus,bkcchi,Species,21841,,3.00,1,"",,
631222898,Audio,Black-capped Chickadee,Poecile atricapillus,,Ruger Peavey,2025-02-23,2025,2,23,1254,United States,US-WI-093,Wisconsin,Pierce,Farmyard,44.8542767,-92.3130267,"",,Unspecified,"","",,,,,,,S215086659,"",,,,,Poecile atricapillus,bkcchi,Species,21841,,4.00,1,,,
631210578,Audio,Black-capped Chickadee,Poecile atricapillus,,Gregg Eldred,2025-02-23,2025,2,23,1208,United States,US-NJ-025,New Jersey,Monmouth,Sandy Hook--Spermaceti Cove area,40.4259441,-73.9882851,"",,Unspecified,"","",,,,,,,S215065500,"",,,,In shrubs to the right of the boardwalk. Great looks at them. Photos.,Poecile atricapillus,bkcchi,Species,21841,,.00,0,,,
631178075,Audio,Black-capped Chickadee,Poecile atricapillus,Melospiza melodia -- Song Sparrow,Kriss Replogle,2025-02-23,2025,2,23,909,United States,US-NJ-025,New Jersey,Monmouth,Sandy Hook--Spermaceti Cove area,40.4259441,-73.9882851,"Adult – 1; Unknown – 1","Call; Foraging or Eating",Not Used,"","",,,IPhoneSE,,,,S215011521,"",,,,"2 heard and recorded, 1 just seen.  Call slower and lower like black-capped",Poecile atricapillus,bkcchi,Species,21841,,2.00,3,"",,
631167948,Audio,Black-capped Chickadee,Poecile atricapillus,,Tarik Shahzad,2025-02-07,2025,2,7,1620,United States,US-MN-075,Minnesota,Lake,"2186–2234 Fors Rd, Two Harbors US-MN (47.0895,-91.6250)",47.0894910,-91.6249710,"",,Unspecified,"","",,,,,,,S212349944,"",,,,Mobbing NSWO!,Poecile atricapillus,bkcchi,Species,21841,,.00,0,,,
631166558,Audio,Black-capped Chickadee,Poecile atricapillus,,Alexandre Terrigeol,2024-10-13,2024,10,13,811,Canada,CA-QC-HC,Quebec,La Haute-Côte-Nord,Camping Bon-Désir,48.2688353,-69.5010369,"",,Unspecified,"","",,,,,,,S198693583,"",,,,,Poecile atricapillus,bkcchi,Species,21841,,5.00,1,,,
631164462,Audio,Black-capped Chickadee,Poecile atricapillus,,Greg J,2025-02-22,2025,2,22,742,United States,US-IL-043,Illinois,DuPage,Lyman Woods Forest Preserve,41.8295475,-88.0086934,Adult Male – 1,"Courtship, Display, or Copulation; Foraging or Eating; Song",Not Used,"","",,,,,,,S214848319,"",,,,,Poecile atricapillus,bkcchi,Species,21841,,.00,0,"",,
631157261,Audio,Black-capped Chickadee,Poecile atricapillus,,Brannon O’Donovan,2025-02-23,2025,2,23,835,United States,US-MA-003,Massachusetts,Berkshire,Cheshire Reservoir--Farnams Causeway,42.5388525,-73.1832790,"",,Unspecified,"","",,,,,,,S215017371,"",,,,,Poecile atricapillus,bkcchi,Species,21841,,.00,0,,,
631152230,Audio,Black-capped Chickadee,Poecile atricapillus,,Gary Zenitsky,2025-02-22,2025,2,22,1314,United States,US-IA-015,Iowa,Boone,"Ledges State Park, Madrid, Iowa, US (41.995, -93.873)",41.9948403,-93.8733038,"",,Unspecified,"","",,,,,,,S214908036,"",,,,These calls were being uttered by 6 BCCHs flitting very low on and around Peas Creek just upstream from the entrance bridge to the lower canyon.,Poecile atricapillus,bkcchi,Species,21841,,3.00,1,,,
631148119,Audio,Black-capped Chickadee,Poecile atricapillus,,Laura Annunziata,2024-07-13,2024,7,13,916,United States,US-VT-009,Vermont,Essex,"Moose Bog, Wenlock WMA",44.7640085,-71.7394073,"",,Unspecified,"","",,,,,,,S186802393,"",,,,,Poecile atricapillus,bkcchi,Species,21841,,.00,0,,,
631135438,Audio,Black-capped Chickadee,Poecile atricapillus,,Richard Buist,2023-06-07,2023,6,7,1417,Canada,CA-MB-ON,Manitoba,Eastern Manitoba - Eastman,Amisk Trail,49.9250045,-95.5341781,"",,Unspecified,"","",,,,,,,S140851188,"",,,,,Poecile atricapillus,bkcchi,Species,21841,,.00,0,,,
631131306,Audio,Black-capped Chickadee,Poecile atricapillus,,Richard Buist,2025-02-22,2025,2,22,925,Canada,CA-MB-EL,Manitoba,Winnipeg,CA-MB-Winnipeg-31 Perry Bay,49.8907110,-97.0472990,"",,Unspecified,"","",,,,,,,S214827997,"",,,,,Poecile atricapillus,bkcchi,Species,21841,,2.00,1,,,
631130822,Audio,Black-capped Chickadee,Poecile atricapillus,,Richard Buist,2025-02-22,2025,2,22,1005,Canada,CA-MB-EL,Manitoba,Winnipeg,Terracon Place,49.8864442,-97.0622993,"",,Unspecified,"","",,,,,,,S214945473,"",,,,Fee Bee Bee,Poecile atricapillus,bkcchi,Species,21841,,.00,0,,,
631130804,Audio,Black-capped Chickadee,Poecile atricapillus,,Richard Buist,2025-02-22,2025,2,22,1005,Canada,CA-MB-EL,Manitoba,Winnipeg,Terracon Place,49.8864442,-97.0622993,"",,Unspecified,"","",,,,,,,S214945473,"",,,,Fee Bee Bee,Poecile atricapillus,bkcchi,Species,21841,,.00,0,,,
631127560,Audio,Black-capped Chickadee,Poecile atricapillus,,Lee Juszak,2025-02-22,2025,2,22,1537,United States,US-CO-069,Colorado,Larimer,Poudre River at I-25,40.5317541,-104.9942775,"",,Unspecified,"","",,,,,,,S214930263,"",,,,,Poecile atricapillus,bkcchi,Species,21841,,.00,0,,,
631126947,Audio,Black-capped Chickadee,Poecile atricapillus,,Larry Joseph,2025-02-22,2025,2,22,1300,Canada,CA-BC-KS,British Columbia,Kitimat-Stikine,Strathern Rd riparian,55.2613140,-127.6525500,Adult,Song,Not Used,"","",,,Audiomoth,,,,S214939564,"",,,Recorded at 15:15:00 22/02/2025 (UTC-8) by AudioMoth 249C600363FAD750 at medium gain while battery was 4.7V and temperature was 8.7C.,277 calls,Poecile atricapillus,bkcchi,Species,21841,,4.00,1,"",,
631126949,Audio,Black-capped Chickadee,Poecile atricapillus,,Larry Joseph,2025-02-22,2025,2,22,1300,Canada,CA-BC-KS,British Columbia,Kitimat-Stikine,Strathern Rd riparian,55.2613140,-127.6525500,Adult,Song,Not Used,"","",,,,,,,S214939564,"",,,,277 calls,Poecile atricapillus,bkcchi,Species,21841,,3.00,1,"",,
631126948,Audio,Black-capped Chickadee,Poecile atricapillus,,Larry Joseph,2025-02-22,2025,2,22,1300,Canada,CA-BC-KS,British Columbia,Kitimat-Stikine,Strathern Rd riparian,55.2613140,-127.6525500,Adult,"Foraging or Eating; Song",Not Used,"","",,,,,,,S214939564,"",,,,277 calls,Poecile atricapillus,bkcchi,Species,21841,,4.00,1,"",,
631112906,Audio,Black-capped Chickadee,Poecile atricapillus,,Cole Bauer,2025-02-22,2025,2,22,1428,United States,US-MN-053,Minnesota,Hennepin,Mississippi Gorge Regional Park--Winchell Trail,44.9375421,-93.2050190,"",,Unspecified,"","",,,,,,,S214905474,"",,,,,Poecile atricapillus,bkcchi,Species,21841,,5.00,1,,,
631101902,Audio,Black-capped Chickadee,Poecile atricapillus,"Setophaga coronata coronata -- Yellow-rumped Warbler (Myrtle); Zonotrichia albicollis -- White-throated Sparrow; Poecile hudsonicus -- Boreal Chickadee; Sitta canadensis -- Red-breasted Nuthatch",Fen Levy,2024-07-13,2024,7,13,630,United States,US-ME-017,Maine,Oxford,White Mountain NF--Speckled Mountain Trailhead,44.2672360,-71.0037911,"",Call,Unspecified,"","",,,iphone se,,,,S187114736,"",,,amplified by ~8dB in Audacity,,Poecile atricapillus,bkcchi,Species,21841,,4.00,1,"",,
631099286,Audio,Black-capped Chickadee,Poecile atricapillus,,Garrett MacDonald,2025-02-22,2025,2,22,1008,United States,US-ND-093,North Dakota,Stutsman,Pipestem Reservoir--30th St. SE pine stands,46.9793098,-98.8130045,"",Call,Used,"","",,,Zoom F3,Wildtronics Pro Mono Parabolic Microphone,"Wildtronics 22"" Parabola",,S214849391,"",,,Calls from two close birds (ca. 5m or less) after eastern mobbing playback.,,Poecile atricapillus,bkcchi,Species,21841,,5.00,1,"",,
631097448,Audio,Black-capped Chickadee,Poecile atricapillus,,Lee Juszak,2025-02-21,2025,2,21,1626,United States,US-CO-069,Colorado,Larimer,Spring Canyon Community Park,40.5412649,-105.1267147,"",,Unspecified,"","",,,,,,,S214741143,"",,,,,Poecile atricapillus,bkcchi,Species,21841,,.00,0,,,
631091809,Audio,Black-capped Chickadee,Poecile atricapillus,,Bethany Ulrick,2025-02-22,2025,2,22,700,United States,US-OH-133,Ohio,Portage,Thomas Heritage Park,41.2383990,-81.3553850,"",,Unspecified,"","",,,,,,,S214806654,"",,,,,Poecile atricapillus,bkcchi,Species,21841,,.00,0,,,
631091569,Audio,Black-capped Chickadee,Poecile atricapillus,,josée landriault,2025-02-22,2025,2,22,819,Canada,CA-QC-OU,Quebec,Gatineau,"6 Rue de la Loire, Gatineau CA-QC 45.47377, -75.75714",45.4737740,-75.7571390,"",,Unspecified,"","",,,,,,,S214808239,"",,,,Chant du printemps,Poecile atricapillus,bkcchi,Species,21841,,.00,0,,,
631075703,Audio,Black-capped Chickadee,Poecile atricapillus,,Larry Joseph,2025-02-21,2025,2,21,1230,Canada,CA-BC-KS,British Columbia,Kitimat-Stikine,Larry’s yard,55.2644660,-127.6522200,Adult,Song,Not Used,"","",,,Audiomoth,,,,S214747693,"",,,,"1059 calls;",Poecile atricapillus,bkcchi,Species,21841,,4.00,1,"",,
631075701,Audio,Black-capped Chickadee,Poecile atricapillus,,Larry Joseph,2025-02-21,2025,2,21,1230,Canada,CA-BC-KS,British Columbia,Kitimat-Stikine,Larry’s yard,55.2644660,-127.6522200,Adult – 1,"Foraging or Eating; Song",Not Used,"","",,,Audiomoth,,,,S214747693,"",,,,"1059 calls;",Poecile atricapillus,bkcchi,Species,21841,,4.00,1,"",,
631075702,Audio,Black-capped Chickadee,Poecile atricapillus,,Larry Joseph,2025-02-21,2025,2,21,1230,Canada,CA-BC-KS,British Columbia,Kitimat-Stikine,Larry’s yard,55.2644660,-127.6522200,Adult,Song,Not Used,"","",,,Audiomoth,,,,S214747693,"",,,,"1059 calls;",Poecile atricapillus,bkcchi,Species,21841,,3.00,1,"",,
631072784,Audio,Black-capped Chickadee,Poecile atricapillus,,Dana Siefer,2025-02-21,2025,2,21,0,United States,US-IA-021,Iowa,Buena Vista,StormyD BirdWeather PUC #11101,42.6436223,-95.2145645,"",,Unspecified,"","",,,,,,,S214745973,"",,,,,Poecile atricapillus,bkcchi,Species,21841,,4.00,1,,,
631064491,Audio,Black-capped Chickadee,Poecile atricapillus,,Garrett MacDonald,2025-02-21,2025,2,21,1610,United States,US-ND-093,North Dakota,Stutsman,Magpie Manor,46.9197861,-98.7150816,"",Call,Not Used,"","",,,Zoom F3,Wildtronics Pro Mono Parabolic Microphone,"Wildtronics 22"" Parabola",,S214727457,"",,,"One bird that approached and called from near the feeders. Flew to the suet log at 23s, then quickly retreated.",,Poecile atricapillus,bkcchi,Species,21841,,3.00,1,"",,
631062848,Audio,Black-capped Chickadee,Poecile atricapillus,,Ari Cassella,2025-02-21,2025,2,21,1222,United States,US-NY-091,New York,Saratoga,"Bog Meadow Brook Nature Trail, Saratoga Springs, New York, US (43.077, -73.702)",43.0770564,-73.7024768,"",,Unspecified,"","",,,,,,,S214698186,"",,,,,Poecile atricapillus,bkcchi,Species,21841,,.00,0,,,
631054373,Audio,Black-capped Chickadee,Poecile atricapillus,,Jeremy Dominguez,2024-08-22,2024,8,22,1554,United States,US-OH-095,Ohio,Lucas,Magee Marsh (Lucas Co.),41.6265199,-83.1889691,"",,Unspecified,"","",,,,,,,S192392739,"",,,,,Poecile atricapillus,bkcchi,Species,21841,,.00,0,,,
631051429,Audio,Black-capped Chickadee,Poecile atricapillus,"Sitta carolinensis -- White-breasted Nuthatch; Haemorhous mexicanus -- House Finch",Garrett MacDonald,2025-02-21,2025,2,21,1050,United States,US-ND-093,North Dakota,Stutsman,Magpie Manor,46.9197861,-98.7150816,"",Call,Not Used,"","",,,iPhone 14,,,,S214683764,"",,,"Alarm calls from two birds 10 feet away in the ash out my home office window. I didn't notice a hawk or any kind of predator.",,Poecile atricapillus,bkcchi,Species,21841,,3.00,1,"",,
631046839,Audio,Black-capped Chickadee,Poecile atricapillus,,Brendan Carroll,2025-02-21,2025,2,21,914,United States,US-MI-103,Michigan,Marquette,The Tobias Terrace,46.5588670,-87.3974420,"",,Unspecified,"","",,,,,,,S214661812,"",,,,Two singing birds in duet. Audio of only one. Stopped duetting as soon as I hit record.,Poecile atricapillus,bkcchi,Species,21841,,.00,0,,,
630991102,Audio,Black-capped Chickadee,Poecile atricapillus,,Richard Buist,2025-02-15,2025,2,15,1315,Canada,CA-MB-ON,Manitoba,Eastern Manitoba - Eastman,"Road 63 East, Vassar, Manitoba, CA (49.311, -96.036)",49.3106567,-96.0357417,"",,Unspecified,"","",,,,,,,S213574758,"",,,,,Poecile atricapillus,bkcchi,Species,21841,,.00,0,,,
630990997,Audio,Black-capped Chickadee,Poecile atricapillus,,Richard Buist,2025-02-15,2025,2,15,1315,Canada,CA-MB-ON,Manitoba,Eastern Manitoba - Eastman,"Road 63 East, Vassar, Manitoba, CA (49.311, -96.036)",49.3106567,-96.0357417,"",,Unspecified,"","",,,,,,,S213574758,"",,,,,Poecile atricapillus,bkcchi,Species,21841,,.00,0,,,
630971432,Audio,Black-capped Chickadee,Poecile atricapillus,Sitta carolinensis -- White-breasted Nuthatch,Carey Purdon,2025-02-19,2025,2,19,1535,Canada,CA-ON-RE,Ontario,Renfrew,"665 Island View Drive, Golden Lake, Ontario, CA (45.59, -77.282)",45.5895161,-77.2824904,"","Call; Foraging or Eating",Not Used,"","",,,Wavepad app. 32-bit Float,Android Samsung Galaxy S21. phone,Audacity: Normalized to -3 DB. ,,S214450513,"",,,A group of 7 BCCH were recorded near a feeder just after the new seeds were placed.,Seven BCCH were observed and recorded near the bird feeders. The BCCH usually wait in the nearby trees  while the sunflower seeds were put in the various feeders. During this checklist the birds seemed to more vocally active.,Poecile atricapillus,bkcchi,Species,21841,,2.00,1,"",,
630957131,Audio,Black-capped Chickadee,Poecile atricapillus,,Anonymous,2025-02-14,2025,2,14,754,United States,US-PA-095,Pennsylvania,Northampton,Karl Stirner Arts Trail,40.6984516,-75.2137890,"",,Unspecified,"","",,,,,,,S213240116,"",,,,,Poecile atricapillus,bkcchi,Species,21841,,.00,0,,,
630942049,Audio,Black-capped Chickadee,Poecile atricapillus,,Dana Sterner,2025-02-02,2025,2,2,912,United States,US-MN-163,Minnesota,Washington,Valley Creek Park,44.9232093,-92.8732266,"",,Unspecified,"","",,,,,,,S211757991,"",,,,,Poecile atricapillus,bkcchi,Species,21841,,4.00,1,,,
630942050,Audio,Black-capped Chickadee,Poecile atricapillus,,Dana Sterner,2025-02-02,2025,2,2,912,United States,US-MN-163,Minnesota,Washington,Valley Creek Park,44.9232093,-92.8732266,"",,Unspecified,"","",,,,,,,S211757991,"",,,,,Poecile atricapillus,bkcchi,Species,21841,,4.00,1,,,
630941398,Audio,Black-capped Chickadee,Poecile atricapillus,,Richard Buist,2025-02-14,2025,2,14,1151,Canada,CA-MB-ON,Manitoba,Eastern Manitoba - Eastman,Sandilands PF--PR 503,49.5703592,-95.8200713,"",,Unspecified,"","",,,,,,,S213279916,"",,,,,Poecile atricapillus,bkcchi,Species,21841,,.00,0,,,
630930086,Audio,Black-capped Chickadee,Poecile atricapillus,,Doug Cooper,2025-02-18,2025,2,18,900,Canada,CA-BC-GV,British Columbia,Metro Vancouver,Hastings Park Sanctuary,49.2826731,-123.0417905,"",,Unspecified,"","",,,,,,,S214286197,"",,,,"One singing ""sweetie"".",Poecile atricapillus,bkcchi,Species,21841,,.00,0,,,
630923798,Audio,Black-capped Chickadee,Poecile atricapillus,,Matt Blaze,2025-02-15,2025,2,15,900,United States,US-CO-037,Colorado,Eagle,Wildridge Rd,39.6674167,-106.5427384,"",,Unspecified,"","",,,,,,,S213840155,"",,,,,Poecile atricapillus,bkcchi,Species,21841,,4.00,1,,,
630887326,Audio,Black-capped Chickadee,Poecile atricapillus,,Richard Buist,2025-02-17,2025,2,17,1359,Canada,CA-MB-TV,Manitoba,Beausejour Area,Birds Hill PP,50.0165900,-96.8834800,"",,Unspecified,"","",,,,,,,S214154520,"",,,,,Poecile atricapillus,bkcchi,Species,21841,,.00,0,,,
630887314,Audio,Black-capped Chickadee,Poecile atricapillus,,Richard Buist,2025-02-17,2025,2,17,1359,Canada,CA-MB-TV,Manitoba,Beausejour Area,Birds Hill PP,50.0165900,-96.8834800,"",,Unspecified,"","",,,,,,,S214154520,"",,,,,Poecile atricapillus,bkcchi,Species,21841,,.00,0,,,
630881820,Audio,Black-capped Chickadee,Poecile atricapillus,,Sherilyn Paris,2025-02-17,2025,2,17,1106,United States,US-ID-001,Idaho,Ada,Morrison Knudsen Nature Center,43.6014339,-116.1845183,"",,Unspecified,"","",,,,,,,S214106620,"",,,,,Poecile atricapillus,bkcchi,Species,21841,,.00,0,,,
630880678,Audio,Black-capped Chickadee,Poecile atricapillus,,Kathleen MacAulay,2024-11-28,2024,11,28,847,Canada,CA-NS-YA,Nova Scotia,Yarmouth,Pembroke--Goose Flats/Cranberry Head,43.8892689,-66.1555913,"",Call,Not Used,"","",,,,,,,S203917789,"",,,Two chickadees having a disagreement,,Poecile atricapillus,bkcchi,Species,21841,,3.00,1,"",,
630875836,Audio,Black-capped Chickadee,Poecile atricapillus,,Elizabeth Petersen,2025-02-17,2025,2,17,1654,United States,US-WY-023,Wyoming,Lincoln,Home,42.7450432,-111.0015950,"",,Unspecified,"","",,,,,,,S214176004,"",,,,,Poecile atricapillus,bkcchi,Species,21841,,.00,0,,,
630812641,Audio,Black-capped Chickadee,Poecile atricapillus,,BML 🪶,2024-10-29,2024,10,29,753,United States,US-NY-061,New York,New York,Inwood Hill Park,40.8717025,-73.9256904,"",Call,Unspecified,"","",,,Samsung Galaxy S23 Ultra,,,,S200684680,"",,,,,Poecile atricapillus,bkcchi,Species,21841,,2.00,1,"",,
630812388,Audio,Black-capped Chickadee,Poecile atricapillus,,Elizabeth Petersen,2025-02-15,2025,2,15,1020,United States,US-UT-049,Utah,Utah,Momentum Gymnastics,40.3584900,-111.7746440,"",,Unspecified,"","",,,,,,,S213534332,"",,,,,Poecile atricapillus,bkcchi,Species,21841,,.00,0,,,
630812387,Audio,Black-capped Chickadee,Poecile atricapillus,,Elizabeth Petersen,2025-02-15,2025,2,15,1020,United States,US-UT-049,Utah,Utah,Momentum Gymnastics,40.3584900,-111.7746440,"",,Unspecified,"","",,,,,,,S213534332,"",,,,,Poecile atricapillus,bkcchi,Species,21841,,.00,0,,,
630800096,Audio,Black-capped Chickadee,Poecile atricapillus,,Craig Tumer,2025-02-10,2025,2,10,1219,United States,US-OR-005,Oregon,Clackamas,Graham Oaks Nature Park,45.2993670,-122.8000865,"",,Unspecified,"","",,,,,,,S212795905,"",,,,,Poecile atricapillus,bkcchi,Species,21841,,3.00,1,,,
630799117,Audio,Black-capped Chickadee,Poecile atricapillus,Agelaius phoeniceus -- Red-winged Blackbird,Stella Walk,2025-02-13,2025,2,13,1102,United States,US-OR-003,Oregon,Benton,Midge Cramer Path,44.5655595,-123.3192909,Adult – 1,Song,Not Used,"","",,,Samsung A32 Phone,"",,,S213128618,"",,,,,Poecile atricapillus,bkcchi,Species,21841,,.00,0,"",,
630758337,Audio,Black-capped Chickadee,Poecile atricapillus,,Howard Sands,2025-02-15,2025,2,15,845,United States,US-OR-029,Oregon,Jackson,10655 Agate Rd,42.4690400,-122.8526800,"",,Unspecified,"","",,,,,,,S213665677,"",,,,,Poecile atricapillus,bkcchi,Species,21841,,.00,0,,,
630755043,Audio,Black-capped Chickadee,Poecile atricapillus,,Eric Walters,2025-02-15,2025,2,15,1030,United States,US-CO-069,Colorado,Larimer,Estes Park YMCA Camp,40.3426295,-105.5726118,Adult – 1,"Call; Foraging or Eating",Not Used,"","",,,Android Samsung S12,GoorDik Wireless J3,,,S213535945,"",,,Black-capped Chickadee,Feeding on the ground with the mountain chickadees.,Poecile atricapillus,bkcchi,Species,21841,,2.00,1,"",,
630746264,Audio,Black-capped Chickadee,Poecile atricapillus,Sitta carolinensis -- White-breasted Nuthatch,Carey Purdon,2025-02-15,2025,2,15,851,Canada,CA-ON-RE,Ontario,Renfrew,"665 Island View Drive, Golden Lake, Ontario, CA (45.59, -77.282)",45.5895161,-77.2824904,Adult – 7,"Call; Foraging or Eating",Not Used,"","",,,Wavepad app. 32-bit Float,Android Samsung Galaxy S21. phone,Audacity: Normalized to -3 DB. ,,S213445798,"",,,BCCH was recorded as it landed on a feeder very close  to the recordist. WBNU at 8.7 and 11.4 seconds.,"BCCH were observed at the sunflower seed feeders and the surrounding trees. The sound of the wings were heard as they flew back and forth to the feeder about 6-8 feet away. Multiple "" gurgle/gargle notes"" were also heard. A BCCH with almost like an alarm call was recorded as it landed on a feeder and became aware of the recordist standing nearby.",Poecile atricapillus,bkcchi,Species,21841,,3.00,1,"",,
630745848,Audio,Black-capped Chickadee,Poecile atricapillus,"Turdus migratorius -- American Robin; Bombycilla cedrorum -- Cedar Waxwing; Corvus brachyrhynchos -- American Crow",Shari Schwartz,2025-02-09,2025,2,9,1330,United States,US-NE-109,Nebraska,Lancaster,Branched Oak SRA,40.9704362,-96.8676911,"",Call,Not Used,"","",,,Zoom Q3,,,,S213158926,"",,,"emphatically repeating ""chick-a-chick-a-deedeedeedeedee"" ","heard high tinky notes (1st & 2nd recordings) then a BCCH that was perched eye-level 10-15' away launched into relentless 'chick-a-dee' scolding (3rd recording) presumably directed at recordist but apparently wasn't too upset because it started to alternate preening with scolding, then while leaving heard a 2nd BCCH close by on opposite side of trail do a few more high tinky notes (not recorded)",Poecile atricapillus,bkcchi,Species,21841,,4.50,2,"",,
630739051,Audio,Black-capped Chickadee,Poecile atricapillus,,Germain Savard,2025-02-15,2025,2,15,714,Canada,CA-QC-SAG,Quebec,Saguenay,Sentiers du Saguenay--Secteur du Manoir,48.4438140,-71.1916050,"",Song,Unspecified,"","",,,,,,,S213429339,"",,,Mésanges qui chantent et se répondent.,,Poecile atricapillus,bkcchi,Species,21841,,3.00,1,"",,
630719749,Audio,Black-capped Chickadee,Poecile atricapillus,,David Nelson,2025-02-15,2025,2,15,843,United States,US-ME-031,Maine,York,"Blackberry Hill Road, Berwick",43.2656751,-70.8197272,"","Call; Song",Unspecified,"","",,,,,,,S213481632,"",,,,,Poecile atricapillus,bkcchi,Species,21841,,.00,0,"",,
630711154,Audio,Black-capped Chickadee,Poecile atricapillus,,Andrés M. López,2024-08-19,2024,8,19,803,Canada,CA-AB-EI,Alberta,Red Deer,Taylor Drive,52.2566335,-113.8194970,"",,Unspecified,"","",,,,,,,S193341578,"",,,,,Poecile atricapillus,bkcchi,Species,21841,,.00,0,,,
630698149,Audio,Black-capped Chickadee,Poecile atricapillus,,Kathy Marche,2025-02-10,2025,2,10,820,Canada,CA-NL-FO,Newfoundland and Labrador,"St. George's-Stephenville",Kippens--general location,48.5489052,-58.6257831,"",,Unspecified,"","",,,,,,,S212818527,"",,,,Boreal chickadee also recorded in the audio,Poecile atricapillus,bkcchi,Species,21841,,.00,0,,,
630698006,Audio,Black-capped Chickadee,Poecile atricapillus,,Kathy Marche,2025-02-13,2025,2,13,830,Canada,CA-NL-FO,Newfoundland and Labrador,"St. George's-Stephenville",Kippens--general location,48.5489052,-58.6257831,"",,Unspecified,"","",,,,,,,S213154593,"",,,,Boreal chickadee also recorded in the audio .,Poecile atricapillus,bkcchi,Species,21841,,.00,0,,,
630697845,Audio,Black-capped Chickadee,Poecile atricapillus,,Kathy Marche,2025-02-12,2025,2,12,906,Canada,CA-NL-FO,Newfoundland and Labrador,"St. George's-Stephenville",Kippens--general location,48.5489052,-58.6257831,"",,Unspecified,"","",,,,,,,S213024668,"",,,,,Poecile atricapillus,bkcchi,Species,21841,,.00,0,,,
630696683,Audio,Black-capped Chickadee,Poecile atricapillus,"Bombycilla cedrorum -- Cedar Waxwing; Turdus migratorius -- American Robin; Corvus brachyrhynchos -- American Crow",Shari Schwartz,2025-02-09,2025,2,9,1330,United States,US-NE-109,Nebraska,Lancaster,Branched Oak SRA,40.9704362,-96.8676911,"",Call,Not Used,"","",,,Zoom Q3,,,,S213158926,"",,,repeated series of high tinky notes until :38 when CEDWs & AMROs start vocalizing continuously and the last couple series of BCCH notes extend into lower kHz,"heard high tinky notes (1st & 2nd recordings) then a BCCH that was perched eye-level 10-15' away launched into relentless 'chick-a-dee' scolding (3rd recording) presumably directed at recordist but apparently wasn't too upset because it started to alternate preening with scolding, then while leaving heard a 2nd BCCH close by on opposite side of trail do a few more high tinky notes (not recorded)",Poecile atricapillus,bkcchi,Species,21841,,4.50,2,"",,
630696656,Audio,Black-capped Chickadee,Poecile atricapillus,"Bombycilla cedrorum -- Cedar Waxwing; Corvus brachyrhynchos -- American Crow",Shari Schwartz,2025-02-09,2025,2,9,1330,United States,US-NE-109,Nebraska,Lancaster,Branched Oak SRA,40.9704362,-96.8676911,"",Call,Not Used,"","",,,Zoom Q3,,,,S213158926,"",,,high tinky notes at :15-:16 and :30-:31,"heard high tinky notes (1st & 2nd recordings) then a BCCH that was perched eye-level 10-15' away launched into relentless 'chick-a-dee' scolding (3rd recording) presumably directed at recordist but apparently wasn't too upset because it started to alternate preening with scolding, then while leaving heard a 2nd BCCH close by on opposite side of trail do a few more high tinky notes (not recorded)",Poecile atricapillus,bkcchi,Species,21841,,4.00,1,"",,
630690957,Audio,Black-capped Chickadee,Poecile atricapillus,,Carlmais Johnson,2025-02-14,2025,2,14,1600,United States,US-NY-047,New York,Kings,"BJs Wholesale Club Waterfront, Brooklyn",40.5917716,-73.9990756,"",,Unspecified,"","",,,,,,,S213322862,"",,,,Heard only.,Poecile atricapillus,bkcchi,Species,21841,,.00,0,,,
630688395,Audio,Black-capped Chickadee,Poecile atricapillus,,Joanna Clark,2025-02-14,2025,2,14,1224,United States,US-CO-013,Colorado,Boulder,Norwood Backyard,40.0439060,-105.2717880,"",,Unspecified,"","",,,,,,,S213336365,"",,,,,Poecile atricapillus,bkcchi,Species,21841,,.00,0,,,
630684690,Audio,Black-capped Chickadee,Poecile atricapillus,,Trevor Ricks,2025-02-14,2025,2,14,1316,United States,US-UT-043,Utah,Summit,Rail Trail--Coalville to Echo Reservoir,40.9217577,-111.4034995,"",,Unspecified,"","",,,,,,,S213292828,"",,,,,Poecile atricapillus,bkcchi,Species,21841,,.00,0,,,
630676652,Audio,Black-capped Chickadee,Poecile atricapillus,,Susan Elliott,2025-02-14,2025,2,14,1036,United States,US-VT-021,Vermont,Rutland,Pittsford Trails--Split Rock,43.7152183,-72.9940610,"",Call,Not Used,"","",,,iPhone12 Pro/Merlin,none,none,,S213254745,"",,,,,Poecile atricapillus,bkcchi,Species,21841,,3.00,1,"",,
630672467,Audio,Black-capped Chickadee,Poecile atricapillus,Sitta carolinensis -- White-breasted Nuthatch,Peter Blancher,2025-02-14,2025,2,14,749,Canada,CA-ON-OT,Ontario,Ottawa,Richmond - Yard to Jock River,45.1702687,-75.8306837,"",Song,Not Used,"","",,,,,,,S213218458,"",,,,,Poecile atricapillus,bkcchi,Species,21841,,3.00,1,"",,
630655832,Audio,Black-capped Chickadee,Poecile atricapillus,,Lucas Meerstra,2025-02-13,2025,2,13,1613,Canada,CA-BC-FV,British Columbia,Fraser Valley,Abbotsford--Willband Creek Park,49.0706488,-122.2811754,"",,Unspecified,"","",,,,,,,S213153233,"",,,,,Poecile atricapillus,bkcchi,Species,21841,,5.00,1,,,
630655831,Audio,Black-capped Chickadee,Poecile atricapillus,,Lucas Meerstra,2025-02-13,2025,2,13,1613,Canada,CA-BC-FV,British Columbia,Fraser Valley,Abbotsford--Willband Creek Park,49.0706488,-122.2811754,"",,Unspecified,"","",,,,,,,S213153233,"",,,,,Poecile atricapillus,bkcchi,Species,21841,,4.00,1,,,
630655830,Audio,Black-capped Chickadee,Poecile atricapillus,,Lucas Meerstra,2025-02-13,2025,2,13,1613,Canada,CA-BC-FV,British Columbia,Fraser Valley,Abbotsford--Willband Creek Park,49.0706488,-122.2811754,"",,Unspecified,"","",,,,,,,S213153233,"",,,,,Poecile atricapillus,bkcchi,Species,21841,,.00,0,,,
630644606,Audio,Black-capped Chickadee,Poecile atricapillus,Agelaius phoeniceus -- Red-winged Blackbird,Richard Buist,2023-07-05,2023,7,5,1653,Canada,CA-MB-EL,Manitoba,Winnipeg,CA-MB-Winnipeg-31 Perry Bay,49.8907110,-97.0472990,"",,Unspecified,"","",,,Samsung A21,,,,S213130550,"",,,,,Poecile atricapillus,bkcchi,Species,21841,,.00,0,,,
630644467,Audio,Black-capped Chickadee,Poecile atricapillus,Agelaius phoeniceus -- Red-winged Blackbird,Richard Buist,2023-07-05,2023,7,5,1653,Canada,CA-MB-EL,Manitoba,Winnipeg,CA-MB-Winnipeg-31 Perry Bay,49.8907110,-97.0472990,"",,Unspecified,"","",,,Samsung A21,,,,S213130550,"",,,,,Poecile atricapillus,bkcchi,Species,21841,,.00,0,,,
630643767,Audio,Black-capped Chickadee,Poecile atricapillus,,Randy Bossuyt,2025-02-13,2025,2,13,1500,Canada,CA-MB-TE,Manitoba,Whitehorse Plains,La Salle ,49.6907317,-97.2619629,"",,Unspecified,"","",,,,,,,S213131210,"",,,,,Poecile atricapillus,bkcchi,Species,21841,,.00,0,,,
630643280,Audio,Black-capped Chickadee,Poecile atricapillus,,Richard Buist,2023-07-07,2023,7,7,718,Canada,CA-MB-EL,Manitoba,Winnipeg,CA-MB-Winnipeg-31 Perry Bay,49.8907110,-97.0472990,"",,Unspecified,"","",,,,,,,S213129547,"",,,,,Poecile atricapillus,bkcchi,Species,21841,,.00,0,,,
630636594,Audio,Black-capped Chickadee,Poecile atricapillus,,Richard Buist,2023-07-08,2023,7,8,1051,Canada,CA-MB-TV,Manitoba,Beausejour Area,Birds Hill PP,50.0165900,-96.8834800,"",,Unspecified,"","",,,,,,,S143959195,"",,,,,Poecile atricapillus,bkcchi,Species,21841,,.00,0,,,
630619255,Audio,Black-capped Chickadee,Poecile atricapillus,,Larry Joseph,2025-02-11,2025,2,11,1600,Canada,CA-BC-KS,British Columbia,Kitimat-Stikine,Larry’s yard,55.2644660,-127.6522200,Adult,Song,Not Used,"","",,,Audiomoth,,,,S213029023,"",,,Recorded at 16:29:00 10/02/2025 (UTC-8) by AudioMoth 249C600363FAD750 at medium gain while battery was 4.7V and temperature was -11.0C.,3 calls,Poecile atricapillus,bkcchi,Species,21841,,3.00,2,"",,
630617673,Audio,Black-capped Chickadee,Poecile atricapillus,,Richard Buist,2023-07-11,2023,7,11,2026,Canada,CA-MB-EL,Manitoba,Winnipeg,Bernie Wolfe Park / Railway tracks,49.8893917,-97.0468635,"",,Unspecified,"","",,,,,,,S144296458,"",,,,,Poecile atricapillus,bkcchi,Species,21841,,.00,0,,,
630617634,Audio,Black-capped Chickadee,Poecile atricapillus,,Richard Buist,2023-07-11,2023,7,11,2026,Canada,CA-MB-EL,Manitoba,Winnipeg,Bernie Wolfe Park / Railway tracks,49.8893917,-97.0468635,"",,Unspecified,"","",,,,,,,S144296458,"",,,,,Poecile atricapillus,bkcchi,Species,21841,,1.00,1,,,
630617547,Audio,Black-capped Chickadee,Poecile atricapillus,,Richard Buist,2023-07-11,2023,7,11,2026,Canada,CA-MB-EL,Manitoba,Winnipeg,Bernie Wolfe Park / Railway tracks,49.8893917,-97.0468635,"",,Unspecified,"","",,,,,,,S144296458,"",,,,,Poecile atricapillus,bkcchi,Species,21841,,.00,0,,,
630610290,Audio,Black-capped Chickadee,Poecile atricapillus,Regulus satrapa -- Golden-crowned Kinglet,Henry Burton,2025-01-24,2025,1,24,1639,United States,US-OR-003,Oregon,Benton,William L. Finley NWR--Turtle Flats,44.4222259,-123.3144093,"",Call,Unspecified,"","",,,,,,,S210538061,"",,,,,Poecile atricapillus,bkcchi,Species,21841,,3.00,1,"",,
630605130,Audio,Black-capped Chickadee,Poecile atricapillus,,Domenico Comita,2025-02-12,2025,2,12,1233,Canada,CA-BC-TN,British Columbia,Thompson-Nicola,My House,50.6668610,-120.3476060,"",,Unspecified,"","",,,,,,,S213024117,"",,,,,Poecile atricapillus,bkcchi,Species,21841,,.00,0,,,
630604739,Audio,Black-capped Chickadee,Poecile atricapillus,,Kevin Gong,2025-02-12,2025,2,12,829,United States,US-PA-017,Pennsylvania,Bucks,George School (Langhorne NW),40.2118354,-74.9397897,"",,Unspecified,"","",,,,,,,S212983032,"",,,,"**rare. Probably continuing saw two together photos --- heard some movement in bushes just as i got to pe edge at 40.2079469600464, -74.9398057776426. there was some movement in bushes include a bird that suspiciously looked like white crowned sparrow but after very quick pishing a bcch popped out very distinctive bird (immediatley got the ML630666160 photos) and i thought that it was probably continuing. then it started to forage on a branch right in front of me for amazing photos, unfortunately i didnt realize at the time that the set of pics of it on the tip of a thin branch right in front of me (like 1.5 max) was partially obstructed to the left by some out of focus red thing didnt realize until checking pics later (like ML630666130) but other photos are still good and my best photos of this species yet. later realized that there was 2, seen simultaneously one with duller flanks not as colorful not sure if both are represented in the pics. much more confiding than cach in my experience, not sure if its just these two individuals. to the east a bit later ML630601002 also popped up on higher branch and apparently drinking snow for water",Poecile atricapillus,bkcchi,Species,21841,,.00,0,,,
630560509,Audio,Black-capped Chickadee,Poecile atricapillus,Branta canadensis -- Canada Goose,Linnea Gebauer,2025-02-11,2025,2,11,1132,United States,US-OR-035,Oregon,Klamath,"Putnam's Point",42.2388442,-121.8075228,"",,Unspecified,"","",,,,,,,S212908245,"",,,"Canada Goose and Black-Capped Chickadee, faint but was confirmed by Merlin","Counted 3 separate individuals in 2 trees.  No white stripe above eye, 100% black cap. Slightly more reddish color on sides, unlike mountain chickadee. Also identified through sound recording.",Poecile atricapillus,bkcchi,Species,21841,,.00,0,,,
630560021,Audio,Black-capped Chickadee,Poecile atricapillus,,Jean Crépeau,2025-02-09,2025,2,9,740,Canada,CA-QC-MG,Quebec,Memphrémagog,Lac Stukely - Ch. des Oblats,45.3566613,-72.2617619,"",,Unspecified,"","",,,,,,,S212577728,"",,,,,Poecile atricapillus,bkcchi,Species,21841,,4.00,2,,,
630548064,Audio,Black-capped Chickadee,Poecile atricapillus,,Larry Joseph,2025-02-11,2025,2,11,600,Canada,CA-BC-KS,British Columbia,Kitimat-Stikine,Larry’s yard,55.2644660,-127.6522200,Adult – 2,"Foraging or Eating; Song",Not Used,"","",,,Audiomoth,,,,S212899126,"",,,Recorded at 09:16:00 11/02/2025 (UTC-8) by AudioMoth 249C600363FAD750 at medium gain while battery was 4.6V and temperature was -12.6C.,"410 call detections;",Poecile atricapillus,bkcchi,Species,21841,,5.00,2,"",,
630547325,Audio,Black-capped Chickadee,Poecile atricapillus,,Edward Raynor,2025-02-11,2025,2,11,1004,United States,US-WA-063,Washington,Spokane,Riverfront Park,47.6620575,-117.4196938,"",,Unspecified,"","",,,,,,,S212895903,"",,,,,Poecile atricapillus,bkcchi,Species,21841,,.00,0,,,
630539005,Audio,Black-capped Chickadee,Poecile atricapillus,Sturnus vulgaris -- European Starling,Sarah Bowman,2025-02-11,2025,2,11,915,Canada,CA-ON-WT,Ontario,Waterloo,"King East, Kitchener, ON, Canada",43.4473340,-80.4802320,Adult – 1,Song,Unspecified,"","",,,Recorded as video with Panasonic Lumix DC-FZ80 camera.,"",Converted to audio with online converter.,,S212870746,"",,,Background noise: Traffic.,I heard it singing somewhere down Cedar Street when I was out by the street.,Poecile atricapillus,bkcchi,Species,21841,,4.00,1,"",,
630513738,Audio,Black-capped Chickadee,Poecile atricapillus,Junco hyemalis -- Dark-eyed Junco,Amy Swarr,2025-02-09,2025,2,9,635,United States,US-VT-027,Vermont,Windsor,"Weston Heights/Kennedy Drive Neighborhood, Windsor, Vermont, US (43.443, -72.399)",43.4427537,-72.3992180,Unknown – 4,"Call; Foraging or Eating",Unspecified,"","",,,Samsung S22,,,,S212574105,"",,,Four chickadees arrived at our feeding station together while I was in the yard.,1 calling next door north. 4 arrived at our feeders. Recorded. 2 males singing.,Poecile atricapillus,bkcchi,Species,21841,,4.00,1,"",,
630499855,Audio,Black-capped Chickadee,Poecile atricapillus,,"Dan O'Brien",2025-02-09,2025,2,9,1406,United States,US-MA-021,Massachusetts,Norfolk,Farnham-Connolly Memorial Park,42.1680953,-71.1637688,Adult – 2,Call,Unspecified,"","",,,,,,,S212671218,"",,,,,Poecile atricapillus,bkcchi,Species,21841,,3.50,2,"",,
630467102,Audio,Black-capped Chickadee,Poecile atricapillus,,Domenico Comita,2025-02-09,2025,2,9,1600,Canada,CA-BC-TN,British Columbia,Thompson-Nicola,Paul Lake Provincial Park,50.7356700,-120.1635600,"",,Unspecified,"","",,,,,,,S212695736,"",,,,Saw 3 fly overhead into nearby forest area. Went into forest to record audio.,Poecile atricapillus,bkcchi,Species,21841,,3.00,1,,,
630427858,Audio,Black-capped Chickadee,Poecile atricapillus,,Serge Morneau,2025-02-08,2025,2,8,1300,Canada,CA-QC-NY,Quebec,Nicolet-Yamaska,1 aux mangeoires Backyard,46.1394708,-72.7152403,"",,Unspecified,"","",,,,,,,S212589891,"",,,,,Poecile atricapillus,bkcchi,Species,21841,,4.50,2,,,
630404904,Audio,Black-capped Chickadee,Poecile atricapillus,,Dave Hawksworth,2025-02-08,2025,2,8,1105,United States,US-NM-053,New Mexico,Socorro,Sevilleta NWR--Unit A,34.2929629,-106.8434143,"",,Unspecified,"","",,,,,,,S212530241,"",,,Both chickadees are calling in this clip.,Continuing in this area.  The two chickadees were together the whole time and very likely a pair.,Poecile atricapillus,bkcchi,Species,21841,,.00,0,,,
630404209,Audio,Black-capped Chickadee,Poecile atricapillus,"Setophaga virens -- Black-throated Green Warbler; Mniotilta varia -- Black-and-white Warbler; Leiothlypis ruficapilla -- Nashville Warbler; Setophaga pinus -- Pine Warbler; Picoides arcticus -- Black-backed Woodpecker",Chris Wood,2023-05-17,2023,5,17,1655,Canada,CA-ON-NP,Ontario,Nipissing,Temagami--Papoose Island Schulers Bay,46.8432943,-80.1420879,Adult Male – 2,Song,Not Used,"","",,,iPhone 12 Pro Max,iPhone 12 Pro Max,,,S138683664,"",,,,,Poecile atricapillus,bkcchi,Species,21841,,2.00,1,"",,
630393243,Audio,Black-capped Chickadee,Poecile atricapillus,Sitta carolinensis carolinensis -- White-breasted Nuthatch (Eastern),Chris Wood,2025-02-08,2025,2,8,858,United States,US-NY-055,New York,Monroe,Hamlin Beach SP--Campground area,43.3610073,-77.9600143,Adult – 2,"Call; Flight Call",Not Used,"","",,,Zoom F3,Wildtronics Pro Mono,"Wildtronics 22"" parabola",,S212420640,"",,,,,Poecile atricapillus,bkcchi,Species,21841,,4.00,1,"",,
630368808,Audio,Black-capped Chickadee,Poecile atricapillus,,Sarah Bowman,2025-02-05,2025,2,5,1320,Canada,CA-ON-WT,Ontario,Waterloo,"King East, Kitchener, ON, Canada",43.4473340,-80.4802320,Adult – 2,"Call; Song",Unspecified,"","",,,Recorded as video with Panasonic Lumix DC-FZ80 camera.,"",Converted to audio with online converter.,,S212432673,"",,,Also camera sound. I was searching for a visual of the birds I was hearing. ,I saw one but I am fairly certain I heard two.,Poecile atricapillus,bkcchi,Species,21841,,4.00,1,"",,
630344461,Audio,Black-capped Chickadee,Poecile atricapillus,,Richard Buist,2023-07-31,2023,7,31,1623,Canada,CA-MB-ON,Manitoba,Eastern Manitoba - Eastman,"Bay 1, Oakbank, Manitoba, CA (50.146, -95.665)",50.1456269,-95.6652747,"",,Unspecified,"","",,,,,,,S212364706,"",,,,,Poecile atricapillus,bkcchi,Species,21841,,.00,0,,,
630337641,Audio,Black-capped Chickadee,Poecile atricapillus,,Nathaniel Cooley,2025-01-15,2025,1,15,1019,United States,US-WA-075,Washington,Whitman,Hole-in-the-Ground,47.2372870,-117.5950813,"",,Unspecified,"","",,,,,,,S209440073,"",,,,,Poecile atricapillus,bkcchi,Species,21841,,.00,0,,,
630333804,Audio,Black-capped Chickadee,Poecile atricapillus,,Darrell Peterson,2025-02-07,2025,2,7,830,United States,US-MO-177,Missouri,Ray,Crooked River CA,39.3999230,-94.0424109,"",,Unspecified,"","",,,Sound Devices MixPre3ii,Senheiser MKH20,Telinga parabola,,S212341329,"",,,,,Poecile atricapillus,bkcchi,Species,21841,,5.00,1,,,
630329665,Audio,Black-capped Chickadee,Poecile atricapillus,,Spencer Ogden,2024-02-01,2024,2,1,1028,United States,US-VT-007,Vermont,Chittenden,Greenmount Cemetery,44.4833951,-73.1867723,"",,Unspecified,"","",,,,,,,S160338950,"",,,,,Poecile atricapillus,bkcchi,Species,21841,,.00,0,,,
630324376,Audio,Black-capped Chickadee,Poecile atricapillus,,Sherilyn Paris,2025-02-07,2025,2,7,1027,United States,US-ID-001,Idaho,Ada,Boise Home,43.5995540,-116.2294420,"",,Unspecified,"","",,,,,,,S212315510,"",,,,,Poecile atricapillus,bkcchi,Species,21841,,.00,0,,,
630323327,Audio,Black-capped Chickadee,Poecile atricapillus,Turdus migratorius -- American Robin,Garrett MacDonald,2025-02-07,2025,2,7,1018,United States,US-ND-093,North Dakota,Stutsman,Jamestown Dam--Spillway Trail,46.9269857,-98.7077851,"",Call,Not Used,"","",,,Zoom F3,Wildtronics Pro Mono Parabolic Microphone,"Wildtronics 22"" Parabola",,S212310151,"",,,A few calls and sounds of bird foraging in dead leaf clusters.,,Poecile atricapillus,bkcchi,Species,21841,,3.00,1,"",,
630302052,Audio,Black-capped Chickadee,Poecile atricapillus,,Deniz Serindağ,2025-01-25,2025,1,25,1500,Canada,CA-ON-WT,Ontario,Waterloo,Cambridge--F.W.R. Dickson Wilderness Area,43.2834539,-80.3960609,"",,Unspecified,"","",,,,,,,S210738666,"",,,,,Poecile atricapillus,bkcchi,Species,21841,,5.00,1,,,
630285247,Audio,Black-capped Chickadee,Poecile atricapillus,,J Smith,2025-02-06,2025,2,6,1050,Canada,CA-AB-SI,Alberta,Calgary,Beaupre Road area,51.2633749,-114.6528181,"",Call,Unspecified,"","",,,,,,,S212220538,"",,,,,Poecile atricapillus,bkcchi,Species,21841,,4.00,1,"",,
630252747,Audio,Black-capped Chickadee,Poecile atricapillus,Loxia leucoptera -- White-winged Crossbill,Blake Rodgers,2025-02-04,2025,2,4,1014,United States,US-WI-073,Wisconsin,Marathon,Church Rd Aniwa,45.0097757,-89.4097252,"",Call,Unspecified,"","",,,,,,,S211972572,"",,,,,Poecile atricapillus,bkcchi,Species,21841,,.00,0,"",,
630248536,Audio,Black-capped Chickadee,Poecile atricapillus,"Turdus migratorius -- American Robin; Melospiza georgiana -- Swamp Sparrow",Chris Wood,2023-04-30,2023,4,30,828,United States,US-NY-055,New York,Monroe,Beatty Point—Braddock Height SW block,43.2786340,-77.6929370,Adult – 3,"Call; Song",Not Used,"","",,,iPhone 12 Pro Max,iPhone 12 Pro Max,,,S135534472,"",,,,,Poecile atricapillus,bkcchi,Species,21841,,3.00,1,"",,
630239767,Audio,Black-capped Chickadee,Poecile atricapillus,,Jesse Morris,2025-02-03,2025,2,3,1455,Canada,CA-ON-RR,Ontario,Rainy River,611 North2,48.6782350,-93.5621300,"",Call,Not Used,"","",,,iphone13,,,,S211873781,"",,,,,Poecile atricapillus,bkcchi,Species,21841,,5.00,1,"",,
630229107,Audio,Black-capped Chickadee,Poecile atricapillus,,Lachlan Ziegler,2025-02-05,2025,2,5,1200,United States,US-VT-007,Vermont,Chittenden,Yard Birds,44.4857050,-73.2175740,"",,Unspecified,"","",,,,,,,S212100919,"",,,,,Poecile atricapillus,bkcchi,Species,21841,,.00,0,,,
630203546,Audio,Black-capped Chickadee,Poecile atricapillus,,Richard Buist,2023-07-31,2023,7,31,1424,Canada,CA-MB-ON,Manitoba,Eastern Manitoba - Eastman,Whiteshell PP--Alfred Hole Goose Sanctuary,49.8491931,-95.5518079,"",,Unspecified,"","",,,,,,,S146121567,"",,,,,Poecile atricapillus,bkcchi,Species,21841,,.00,0,,,
630202894,Audio,Black-capped Chickadee,Poecile atricapillus,,Zac Cota,2025-01-23,2025,1,23,1227,United States,US-WA-063,Washington,Spokane,Liberty Lake County Park,47.6368969,-117.0610428,"",,Unspecified,"","",,,,,,,S210418006,"",,,,,Poecile atricapillus,bkcchi,Species,21841,,4.00,1,,,
630193820,Audio,Black-capped Chickadee,Poecile atricapillus,,Larry Joseph,2025-02-04,2025,2,4,1130,Canada,CA-BC-KS,British Columbia,Kitimat-Stikine,Larry’s yard,55.2644660,-127.6522200,Adult – 1,"Foraging or Eating; Song",Not Used,"","",,,Audiomoth,,,,S212014383,"",,,Recorded at 14:38:00 04/02/2025 (UTC-8) by AudioMoth 249C600363FAD750 at medium gain while battery was 4.7V and temperature was -11.3C.,52 calls,Poecile atricapillus,bkcchi,Species,21841,,4.00,1,"",,
630193819,Audio,Black-capped Chickadee,Poecile atricapillus,,Larry Joseph,2025-02-04,2025,2,4,1130,Canada,CA-BC-KS,British Columbia,Kitimat-Stikine,Larry’s yard,55.2644660,-127.6522200,Adult – 1,"Foraging or Eating; Song",Not Used,"","",,,Audiomoth,,,,S212014383,"",,,,52 calls,Poecile atricapillus,bkcchi,Species,21841,,4.00,1,"",,
630179088,Audio,Black-capped Chickadee,Poecile atricapillus,,Les / Carli Kearns,2025-02-04,2025,2,4,915,Canada,CA-BC-BN,British Columbia,Bulkley-Nechako,835 Eichenberger Road,54.4272950,-126.7285480,"",,Unspecified,"","",,,,,,,S211986350,"",,,,"in the lilac bushes and at the feeders Sound i.d also indicated at Chestnut-backed Chickadee but I could not pick one out.",Poecile atricapillus,bkcchi,Species,21841,,.00,0,,,
630176690,Audio,Black-capped Chickadee,Poecile atricapillus,,Andrew W.,2025-02-04,2025,2,4,1105,United States,US-MA-017,Massachusetts,Middlesex,Mount Vernon St.,42.4142547,-71.1729537,"",,Unspecified,"","",,,,,,,S211981976,"",,,,,Poecile atricapillus,bkcchi,Species,21841,,.00,0,,,
630164403,Audio,Black-capped Chickadee,Poecile atricapillus,,Andrew W.,2025-02-04,2025,2,4,627,United States,US-MA-017,Massachusetts,Middlesex,Mount Vernon St.,42.4142547,-71.1729537,Adult Male – 2,Song,Unspecified,"","",,,,,,,S211930522,"",,,Two fee-bee countersingers.,Two fee-bee countersingers! Males advertising territories.,Poecile atricapillus,bkcchi,Species,21841,,.00,0,"",,
630151075,Audio,Black-capped Chickadee,Poecile atricapillus,,Alex Pereschuk,2025-02-02,2025,2,2,1040,Canada,CA-ON-DR,Ontario,Durham,Home,44.1316000,-79.2110930,"",,Unspecified,"","",,,,,,,S211682629,"",,,,,Poecile atricapillus,bkcchi,Species,21841,,5.00,1,,,
630125037,Audio,Black-capped Chickadee,Poecile atricapillus,,Sean McCandless,2025-02-03,2025,2,3,1245,United States,US-MD-015,Maryland,Cecil,Home:110 E. Wallace Ave NE,39.5984259,-75.9391312,"",,Unspecified,"","",,,,,,,S211856008,"",,,,"1 has been continuing since last December. While I was watching a Black capped at the feeder, another one started calling on my side yard then I saw it. 2 separate BCCH at the same time. Photos and recording to be added. A couple days ago, I was wondering how I saw one in the front yard opening a seed and went through the house and there was a BCCH opening up a seed nearly at the same time. Today confirms it for me. Saw them as close as about 10 feet from each other.",Poecile atricapillus,bkcchi,Species,21841,,3.00,1,,,
630125033,Audio,Black-capped Chickadee,Poecile atricapillus,,Sean McCandless,2025-02-03,2025,2,3,1245,United States,US-MD-015,Maryland,Cecil,Home:110 E. Wallace Ave NE,39.5984259,-75.9391312,"",,Unspecified,"","",,,,,,,S211856008,"",,,,"1 has been continuing since last December. While I was watching a Black capped at the feeder, another one started calling on my side yard then I saw it. 2 separate BCCH at the same time. Photos and recording to be added. A couple days ago, I was wondering how I saw one in the front yard opening a seed and went through the house and there was a BCCH opening up a seed nearly at the same time. Today confirms it for me. Saw them as close as about 10 feet from each other.",Poecile atricapillus,bkcchi,Species,21841,,.00,0,,,
630091922,Audio,Black-capped Chickadee,Poecile atricapillus,,Andrew W.,2025-02-02,2025,2,2,1540,United States,US-MA-017,Massachusetts,Middlesex,Mount Vernon St.,42.4142547,-71.1729537,"",,Unspecified,"","",,,,,,,S211768820,"",,,,,Poecile atricapillus,bkcchi,Species,21841,,5.00,1,,,
630067966,Audio,Black-capped Chickadee,Poecile atricapillus,,David Nicosia,2025-02-02,2025,2,2,918,United States,US-NY-007,New York,Broome,Upper Lisle County Park,42.3970664,-75.9642321,"",Call,Unspecified,"","",,,,,,,S211687425,"",,,,,Poecile atricapillus,bkcchi,Species,21841,,4.00,1,"",,
630061737,Audio,Black-capped Chickadee,Poecile atricapillus,,Chris Wood,2025-02-02,2025,2,2,742,United States,US-NY-055,New York,Monroe,Mendon Ponds Park--Quaker Pond Trail,43.0130182,-77.5716090,Adult – 1,"Call; Mechanical Sound",Not Used,"","",,,Zoom F3,Wildtronics Pro Mono,"Wildtronics 22"" parabola",,S211648980,"",,,"Odd soft calls (almost suggesting bink of Bobolink) given from five feet away (so sounding much louder in this recording), and a few chatters before flying off.",,Poecile atricapillus,bkcchi,Species,21841,,2.50,2,"",,
630060591,Audio,Black-capped Chickadee,Poecile atricapillus,"Branta canadensis -- Canada Goose; Cardinalis cardinalis [cardinalis Group] -- Northern Cardinal (Common); Dryobates villosus [villosus Group] -- Hairy Woodpecker (Eastern); Passer domesticus -- House Sparrow",Bill Tollefson,2025-01-28,2025,1,28,744,United States,US-IA-113,Iowa,Linn,Home,42.0162692,-91.7330074,Adult – 1,Call,Not Used,"","",,,,,,,S211003261,"",,,,,Poecile atricapillus,bkcchi,Species,21841,,3.00,1,"",,
630023704,Audio,Black-capped Chickadee,Poecile atricapillus,,John Parker,2025-01-30,2025,1,30,1422,United States,US-MT-031,Montana,Gallatin,Willow Creek--Meridian Cemetery,45.8302981,-111.6469516,"",,Unspecified,"","",,,,,,,S211360017,"",,,,"Recorded from 2-3 m.  I hear this BCCH vocalization every now and again.  Different.  The chickadee was just foraging in the hedge like the other chickadees, didn't seem to be bothered by me at all.  More typical BCCH calls in the background.",Poecile atricapillus,bkcchi,Species,21841,,4.00,1,,,
630023703,Audio,Black-capped Chickadee,Poecile atricapillus,,John Parker,2025-01-30,2025,1,30,1422,United States,US-MT-031,Montana,Gallatin,Willow Creek--Meridian Cemetery,45.8302981,-111.6469516,"",,Unspecified,"","",,,,,,,S211360017,"",,,,"Recorded from 2-3 m.  I hear this BCCH vocalization every now and again.  Different.  The chickadee was just foraging in the hedge like the other chickadees, didn't seem to be bothered by me at all.  More typical BCCH calls in the background.",Poecile atricapillus,bkcchi,Species,21841,,4.00,1,,,
630016436,Audio,Black-capped Chickadee,Poecile atricapillus,,Arav and Aranya Karighattam,2025-01-13,2025,1,13,811,United States,US-MA-017,Massachusetts,Middlesex,Horn Pond Recreation Area,42.4680852,-71.1582396,"",,Unspecified,"","",,,,,,,S209178928,"",,,,"Seen all throughout the walk. They are especially drawn to the seeds, so there were many by the Fox Sparrow and near the grassy path.",Poecile atricapillus,bkcchi,Species,21841,,.00,0,,,
630014894,Audio,Black-capped Chickadee,Poecile atricapillus,,Eric Walters,2025-02-01,2025,2,1,902,United States,US-IL-097,Illinois,Lake,"Edina Park, Zion",42.4470531,-87.8193855,Adult – 1,"Call; Song",Not Used,"","",,,Android Samsung A15,,,,S211493781,"",,,Black-capped Chickadee,,Poecile atricapillus,bkcchi,Species,21841,,3.00,1,"",,
630006684,Audio,Black-capped Chickadee,Poecile atricapillus,,robert goff,2025-01-31,2025,1,31,1144,United States,US-WA-061,Washington,Snohomish,Boe Rd Boat Launch,48.2116944,-122.3395336,"",Call,Unspecified,"","",,,,,,,S211518859,"",,,,,Poecile atricapillus,bkcchi,Species,21841,,.00,0,"",,
629986482,Audio,Black-capped Chickadee,Poecile atricapillus,,Collin Smith,2025-01-29,2025,1,29,926,United States,US-WI-007,Wisconsin,Bayfield,Forest Lodge Nature Trail,46.2008160,-91.1062560,"",Call,Unspecified,"","",,,Google Pixel 7 Pro,Rode VideoMic NTG (via 3.5mm jack to Google 3.5mm to USB-C converter),Merlind Sound ID,,S211135877,"",,,A group of chickadees came across my path. I got them to stick around for a little bit with some pshing.  Filename: 2025-01-29 10_18_hpf50-40-3_lpf16423-20-0-29_trimmed_normalized_eq-down-below-1000hz_BCCH.wav,,Poecile atricapillus,bkcchi,Species,21841,,5.00,1,"",,
629980243,Audio,Black-capped Chickadee,Poecile atricapillus,,Ted Floyd,2025-01-31,2025,1,31,1512,United States,US-CO-013,Colorado,Boulder,Waneka Lake/Greenlee Preserve,39.9970462,-105.1141834,"",,Unspecified,"","",,,,,,,S211426199,"",,,,,Poecile atricapillus,bkcchi,Species,21841,,.00,0,,,
629975007,Audio,Black-capped Chickadee,Poecile atricapillus,,Ellen Star,2025-01-30,2025,1,30,1402,United States,US-IL-089,Illinois,Kane,MA Center Chicago (restricted access),41.8766280,-88.4240040,Adult – 1,"Call; Song",Not Used,"","",,,"Samsung S22 phone, Merlin app",,,,S211419740,"",,,,,Poecile atricapillus,bkcchi,Species,21841,,.00,0,"",,
629967387,Audio,Black-capped Chickadee,Poecile atricapillus,Sitta carolinensis -- White-breasted Nuthatch,Carey Purdon,2025-01-31,2025,1,31,1120,Canada,CA-ON-RE,Ontario,Renfrew,"665 Island View Drive, Golden Lake, Ontario, CA (45.59, -77.282)",45.5895922,-77.2822179,Adult – 6,"Call; Foraging or Eating",Not Used,"","",,,Wavepad app. 32-bit Float,Android Samsung Galaxy S21. phone,Audacity: Normalized to -3 DB. ,,S211394411,"",,,"Recording of interactive call notes of BCCH at a feeder. ""Gurgle notes"" at 43.25 seconds.","Several BCCH were at the feeders. There was noted interactions between the BCCH with frequent short, downslurred warbles with a noticeable drop in pitch ( ""gurgle"" notes) near the feeder area.",Poecile atricapillus,bkcchi,Species,21841,,3.00,1,"",,
629963342,Audio,Black-capped Chickadee,Poecile atricapillus,"Baeolophus bicolor -- Tufted Titmouse; Sitta carolinensis -- White-breasted Nuthatch",Andrew W.,2025-01-31,2025,1,31,946,United States,US-MA-017,Massachusetts,Middlesex,Habitat Education Center and Wildlife Sanctuary (Mass Audubon),42.4028200,-71.1885600,"","Call; Song",Unspecified,"","",,,,,,,S211362450,"",,,,,Poecile atricapillus,bkcchi,Species,21841,,.00,0,"",,
629933822,Audio,Black-capped Chickadee,Poecile atricapillus,,Nancy Clogston,2025-01-30,2025,1,30,1418,United States,US-OR-039,Oregon,Lane,Lyle Hatfield Riverside Trail,44.0805950,-123.0259290,"",,Unspecified,"","",,,,,,,S211290345,"",,,,,Poecile atricapillus,bkcchi,Species,21841,,3.00,1,,,
629926910,Audio,Black-capped Chickadee,Poecile atricapillus,,Amy Swarr,2025-01-26,2025,1,26,703,United States,US-VT-027,Vermont,Windsor,"Weston Heights/Kennedy Drive Neighborhood, Windsor, Vermont, US (43.443, -72.399)",43.4427537,-72.3992180,Unknown – 2,"Call; Foraging or Eating",Unspecified,"","",,,Samsung S22,,,,S210735535,"",,,Two chickadees  visiting the mesh feeder and opening sunflower seeds at shrubs near the feeder.,2 visiting mesh feeder.,Poecile atricapillus,bkcchi,Species,21841,,3.00,1,"",,
629921135,Audio,Black-capped Chickadee,Poecile atricapillus,,Gina Hatch,2025-01-29,2025,1,29,934,United States,US-MA-015,Massachusetts,Hampshire,State Street,42.3224288,-72.6346893,"",,Unspecified,"","",,,,,,,S211287867,"",,,,,Poecile atricapillus,bkcchi,Species,21841,,.00,0,,,
629916515,Audio,Black-capped Chickadee,Poecile atricapillus,,Andrew W.,2025-01-30,2025,1,30,1000,United States,US-MA-017,Massachusetts,Middlesex,Mount Vernon St.,42.4142547,-71.1729537,"",Call,Unspecified,"","",,,,,,,S211272222,"",,,,,Poecile atricapillus,bkcchi,Species,21841,,.00,0,"",,
629916507,Audio,Black-capped Chickadee,Poecile atricapillus,,Andrew W.,2025-01-30,2025,1,30,1000,United States,US-MA-017,Massachusetts,Middlesex,Mount Vernon St.,42.4142547,-71.1729537,"",Call,Unspecified,"","",,,,,,,S211272222,"",,,,,Poecile atricapillus,bkcchi,Species,21841,,.00,0,"",,
629916500,Audio,Black-capped Chickadee,Poecile atricapillus,,Andrew W.,2025-01-30,2025,1,30,1000,United States,US-MA-017,Massachusetts,Middlesex,Mount Vernon St.,42.4142547,-71.1729537,"",Call,Unspecified,"","",,,,,,,S211272222,"",,,,,Poecile atricapillus,bkcchi,Species,21841,,.00,0,"",,
629916494,Audio,Black-capped Chickadee,Poecile atricapillus,,Andrew W.,2025-01-30,2025,1,30,1000,United States,US-MA-017,Massachusetts,Middlesex,Mount Vernon St.,42.4142547,-71.1729537,"",Call,Unspecified,"","",,,,,,,S211272222,"",,,,,Poecile atricapillus,bkcchi,Species,21841,,.00,0,"",,
629916297,Audio,Black-capped Chickadee,Poecile atricapillus,,Andrew W.,2025-01-30,2025,1,30,1000,United States,US-MA-017,Massachusetts,Middlesex,Mount Vernon St.,42.4142547,-71.1729537,"",Call,Unspecified,"","",,,,,,,S211272222,"",,,,,Poecile atricapillus,bkcchi,Species,21841,,.00,0,"",,
629911830,Audio,Black-capped Chickadee,Poecile atricapillus,,Frank T,2025-01-30,2025,1,30,956,United States,US-IL-031,Illinois,Cook,Senn Park / Nicholas Senn High School,41.9893327,-87.6675987,"",,Unspecified,"","",,,,,,,S211238439,"",,,,4 Thorndale,Poecile atricapillus,bkcchi,Species,21841,,.00,0,,,
629907661,Audio,Black-capped Chickadee,Poecile atricapillus,,John M Campbell,2025-01-30,2025,1,30,656,United States,US-PA-133,Pennsylvania,York,Goldsboro Boat Launch (York Co.),40.1624456,-76.7499599,"",,Unspecified,"","",,,,,,,S211215265,"",,,,"Identified by complex call series starting at 18.3 seconds, following “introduction” by American goldfinch.",Poecile atricapillus,bkcchi,Species,21841,,.00,0,,,
629904529,Audio,Black-capped Chickadee,Poecile atricapillus,Cardinalis cardinalis -- Northern Cardinal,Andrew W.,2025-01-30,2025,1,30,800,United States,US-MA-017,Massachusetts,Middlesex,Mount Vernon St.,42.4142547,-71.1729537,"",Song,Unspecified,"","",,,,,,,S211215426,"",,,,,Poecile atricapillus,bkcchi,Species,21841,,.00,0,"",,
629873688,Audio,Black-capped Chickadee,Poecile atricapillus,,Jim Sweeney,2025-01-21,2025,1,21,725,United States,US-MA-023,Massachusetts,Plymouth,Burrage Pond WMA,42.0212167,-70.8722806,"",,Unspecified,"","",,,,,,,S211160678,"",,,,,Poecile atricapillus,bkcchi,Species,21841,,.00,0,,,
629873667,Audio,Black-capped Chickadee,Poecile atricapillus,,Jim Sweeney,2025-01-21,2025,1,21,725,United States,US-MA-023,Massachusetts,Plymouth,Burrage Pond WMA,42.0212167,-70.8722806,"",,Unspecified,"","",,,,,,,S211160678,"",,,,,Poecile atricapillus,bkcchi,Species,21841,,.00,0,,,
629873648,Audio,Black-capped Chickadee,Poecile atricapillus,,Jim Sweeney,2025-01-21,2025,1,21,725,United States,US-MA-023,Massachusetts,Plymouth,Burrage Pond WMA,42.0212167,-70.8722806,"",,Unspecified,"","",,,,,,,S211160678,"",,,,,Poecile atricapillus,bkcchi,Species,21841,,.00,0,,,
629862151,Audio,Black-capped Chickadee,Poecile atricapillus,,Michael Morin,2025-01-29,2025,1,29,1035,United States,US-IL-129,Illinois,Menard,"10901–10999 Knoles Rd, Petersburg US-IL (39.9192,-89.8175)",39.9192350,-89.8174940,"",,Unspecified,"","",,,,,,,S211130756,"",,,,,Poecile atricapillus,bkcchi,Species,21841,,.00,0,,,
629839022,Audio,Black-capped Chickadee,Poecile atricapillus,,Larry Joseph,2025-01-28,2025,1,28,1113,Canada,CA-BC-KS,British Columbia,Kitimat-Stikine,Larry’s yard,55.2644660,-127.6522200,"","Foraging or Eating; Song",Not Used,"","",,,,,,,S211074508,"",,,,648 calls,Poecile atricapillus,bkcchi,Species,21841,,3.00,1,"",,
629839024,Audio,Black-capped Chickadee,Poecile atricapillus,,Larry Joseph,2025-01-28,2025,1,28,1113,Canada,CA-BC-KS,British Columbia,Kitimat-Stikine,Larry’s yard,55.2644660,-127.6522200,Adult,"Foraging or Eating; Song",Not Used,"","",,,Audiomoth,,,,S211074508,"",,,,648 calls,Poecile atricapillus,bkcchi,Species,21841,,3.00,2,"",,
629839025,Audio,Black-capped Chickadee,Poecile atricapillus,,Larry Joseph,2025-01-28,2025,1,28,1113,Canada,CA-BC-KS,British Columbia,Kitimat-Stikine,Larry’s yard,55.2644660,-127.6522200,Adult,"Foraging or Eating; Song",Not Used,"","",,,,,,,S211074508,"",,,,648 calls,Poecile atricapillus,bkcchi,Species,21841,,4.00,1,"",,
629839023,Audio,Black-capped Chickadee,Poecile atricapillus,,Larry Joseph,2025-01-28,2025,1,28,1113,Canada,CA-BC-KS,British Columbia,Kitimat-Stikine,Larry’s yard,55.2644660,-127.6522200,Adult,"Foraging or Eating; Song",Not Used,"","",,,,,,,S211074508,"",,,,648 calls,Poecile atricapillus,bkcchi,Species,21841,,4.00,1,"",,
629815938,Audio,Black-capped Chickadee,Poecile atricapillus,,Brian Hofstetter,2025-01-24,2025,1,24,922,United States,US-NY-109,New York,Tompkins,Cornell University--Beebe Lake,42.4512932,-76.4767515,"",,Unspecified,"","",,,,,,,S210468608,"",,,,,Poecile atricapillus,bkcchi,Species,21841,,4.00,1,,,
629804803,Audio,Black-capped Chickadee,Poecile atricapillus,Cyanocitta cristata -- Blue Jay,Jon Cefus,2017-09-10,2017,9,10,1134,United States,US-OH-151,Ohio,Stark,Sippo Lake--Exploration Gateway,40.8067282,-81.4568424,Adult – 1,Call,Unspecified,"","",,,,,,,S39109208,"",,,,,Poecile atricapillus,bkcchi,Species,21841,,4.00,1,"",,
629804804,Audio,Black-capped Chickadee,Poecile atricapillus,,Jon Cefus,2017-09-10,2017,9,10,1134,United States,US-OH-151,Ohio,Stark,Sippo Lake--Exploration Gateway,40.8067282,-81.4568424,Adult – 2,Song,Unspecified,"","",,,,,,,S39109208,"",,,,,Poecile atricapillus,bkcchi,Species,21841,,4.00,1,"",,
629777353,Audio,Black-capped Chickadee,Poecile atricapillus,,Michael J Good,2025-01-27,2025,1,27,1204,United States,US-ME-009,Maine,Hancock,Stud Mill Road,44.9807060,-68.3764154,Adult – 5,,Unspecified,"","",,,Android,,,,S210919797,"",,,,a small flock was heard and recorded along the return route,Poecile atricapillus,bkcchi,Species,21841,,3.00,1,,,
629777218,Audio,Black-capped Chickadee,Poecile atricapillus,,Michael J Good,2025-01-27,2025,1,27,1105,United States,US-ME-009,Maine,Hancock,Stud Mill Road,44.9807060,-68.3764154,Adult – 1,Call,Unspecified,"","",,,,,,,S210919752,"",,,,I manage to record this BCCK but could not get the BOCK.,Poecile atricapillus,bkcchi,Species,21841,,2.00,1,"",,
629739542,Audio,Black-capped Chickadee,Poecile atricapillus,,Larry Joseph,2025-01-26,2025,1,26,1430,Canada,CA-BC-KS,British Columbia,Kitimat-Stikine,Larry’s yard,55.2644660,-127.6522200,Adult – 1,"Foraging or Eating; Song",Not Used,"","",,,,,,,S210850643,"",,,,52 calls,Poecile atricapillus,bkcchi,Species,21841,,2.50,2,"",,
629739541,Audio,Black-capped Chickadee,Poecile atricapillus,,Larry Joseph,2025-01-26,2025,1,26,1430,Canada,CA-BC-KS,British Columbia,Kitimat-Stikine,Larry’s yard,55.2644660,-127.6522200,Adult – 1,"Foraging or Eating; Song",Not Used,"","",,,,,,,S210850643,"",,,,52 calls,Poecile atricapillus,bkcchi,Species,21841,,3.50,2,"",,
629736348,Audio,Black-capped Chickadee,Poecile atricapillus,"Corvus brachyrhynchos -- American Crow; Asio otus -- Long-eared Owl",Trish Berube,2025-01-26,2025,1,26,1428,United States,US-ME-001,Maine,Androscoggin,"1 Gulf Island Ave, Lewiston US-ME 44.14745, -70.20675",44.1474540,-70.2067500,"",,Unspecified,"","",,,,,,,S210801655,"",,,,,Poecile atricapillus,bkcchi,Species,21841,,3.00,2,,,
629715902,Audio,Black-capped Chickadee,Poecile atricapillus,,Laurent Barrette,2025-01-26,2025,1,26,920,Canada,CA-QC-KA,Quebec,Kamouraska,Boisé Beaupré,47.3449587,-70.0220047,"",,Unspecified,"","",,,,,,,S210763844,"",,,,,Poecile atricapillus,bkcchi,Species,21841,,1.00,1,,,
629715903,Audio,Black-capped Chickadee,Poecile atricapillus,,Laurent Barrette,2025-01-26,2025,1,26,920,Canada,CA-QC-KA,Quebec,Kamouraska,Boisé Beaupré,47.3449587,-70.0220047,"",,Unspecified,"","",,,,,,,S210763844,"",,,,,Poecile atricapillus,bkcchi,Species,21841,,.00,0,,,
629704545,Audio,Black-capped Chickadee,Poecile atricapillus,,Michael Morin,2025-01-26,2025,1,26,1048,United States,US-IL-129,Illinois,Menard,"62675, Petersburg US-IL 39.92298, -89.81552",39.9229800,-89.8155170,"",,Unspecified,"","",,,,,,,S210770041,"",,,,Audio verification,Poecile atricapillus,bkcchi,Species,21841,,.00,0,,,
629699786,Audio,Black-capped Chickadee,Poecile atricapillus,,Kaj Overturf,2023-06-29,2023,6,29,1722,United States,US-MT-029,Montana,Flathead,"Apgar Village, Glacier NP",48.5267560,-113.9939330,"",,Unspecified,"","",,,,,,,S143152685,"",,,,,Poecile atricapillus,bkcchi,Species,21841,,.00,0,,,
629671851,Audio,Black-capped Chickadee,Poecile atricapillus,"Sitta carolinensis carolinensis -- White-breasted Nuthatch (Eastern); Dryobates pubescens pubescens/medianus -- Downy Woodpecker (Eastern)",Chris Wood,2025-01-25,2025,1,25,932,United States,US-NY-109,New York,Tompkins,Connecticut Hill Rd W2,42.3556240,-76.6794540,"","Call; Flight Call",Not Used,"","",,,Zoom F3,Wildtronics Pro Mono,"Wildtronics 22"" parabola",,S210604295,"",,,"Calls from a Black-capped Chickadee. Those in the first few seconds given while moving around in tree, while latter calls were given in flight.",,Poecile atricapillus,bkcchi,Species,21841,,3.00,2,"",,
629655994,Audio,Black-capped Chickadee,Poecile atricapillus,Spinus tristis -- American Goldfinch,Lisa Cancade Hackett,2024-09-09,2024,9,9,1818,Canada,CA-ON-SU,Ontario,Greater Sudbury,"179 Simcoe St, Sudbury CA-ON Hackett House",46.4902740,-81.0168040,Adult – 2,"Call; Mechanical Sound; Song",Unspecified,"","",,,,,,,S194748491,"",,,,,Poecile atricapillus,bkcchi,Species,21841,,3.00,1,"",,
629642278,Audio,Black-capped Chickadee,Poecile atricapillus,,Sarah Bowman,2025-01-25,2025,1,25,935,Canada,CA-ON-WT,Ontario,Waterloo,"King East, Kitchener, ON, Canada",43.4473340,-80.4802320,Adult – 1,Call,Unspecified,"","",,,Recorded as video with Panasonic Lumix DC-FZ80 camera.,"",Converted to audio with online converter.,,S210604216,"",,,I could not see them at this point. ,I saw them in the tree and at my feeder.,Poecile atricapillus,bkcchi,Species,21841,,3.00,3,"",,
629642277,Audio,Black-capped Chickadee,Poecile atricapillus,,Sarah Bowman,2025-01-25,2025,1,25,935,Canada,CA-ON-WT,Ontario,Waterloo,"King East, Kitchener, ON, Canada",43.4473340,-80.4802320,"Adult Female – 1; Adult Male – 1","Call; Courtship, Display, or Copulation; Flying",Unspecified,"","",,,Recorded as video with Panasonic Lumix DC-FZ80 camera.,"",Converted to audio with online converter.,,S210604216,"",,,"They're chasing each other in the tree reminiscent of courting behaviour.",I saw them in the tree and at my feeder.,Poecile atricapillus,bkcchi,Species,21841,,3.00,2,"",,
629641973,Audio,Black-capped Chickadee,Poecile atricapillus,,George Poscover,2025-01-25,2025,1,25,900,United States,US-PA-101,Pennsylvania,Philadelphia,Pennypack on the Delaware,40.0285634,-75.0103783,"",,Unspecified,"","",,,,,,,S210604787,"",,,,"Messy bib, white hockey stick. Larger than CACH. Irruption year. 2-note call; 2nd note lower. Seen at 2 separate locations.",Poecile atricapillus,bkcchi,Species,21841,,.00,0,,,
629641972,Audio,Black-capped Chickadee,Poecile atricapillus,,George Poscover,2025-01-25,2025,1,25,900,United States,US-PA-101,Pennsylvania,Philadelphia,Pennypack on the Delaware,40.0285634,-75.0103783,"",,Unspecified,"","",,,,,,,S210604787,"",,,,"Messy bib, white hockey stick. Larger than CACH. Irruption year. 2-note call; 2nd note lower. Seen at 2 separate locations.",Poecile atricapillus,bkcchi,Species,21841,,.00,0,,,
629637369,Audio,Black-capped Chickadee,Poecile atricapillus,"Psaltriparus minimus -- Bushtit; Sitta carolinensis -- White-breasted Nuthatch",robert beauchamp,2024-12-08,2024,12,8,1040,United States,US-CO-069,Colorado,Larimer,Red Fox Meadows Natural Area,40.5647096,-105.1096988,Unknown – 3,Call,Unspecified,"","",,,,,,,S204847163,"",,,"Mobbing calls among BUSH, BCCH, WBHU. Group of 15-20 birds in bush & tree 15ft from me vocalizing, when out of the bush popped a Sharp-shinned Hawk.",,Poecile atricapillus,bkcchi,Species,21841,,3.00,1,"",,
629602302,Audio,Black-capped Chickadee,Poecile atricapillus,,Larry Joseph,2025-01-24,2025,1,24,950,Canada,CA-BC-KS,British Columbia,Kitimat-Stikine,Larry’s yard,55.2644660,-127.6522200,Adult,"Call; Foraging or Eating; Song",Not Used,"","",,,iPhone 14,Sennheiser MKE600,Blimp,,S210490496,"",,,,,Poecile atricapillus,bkcchi,Species,21841,,4.00,1,"",,
629574699,Audio,Black-capped Chickadee,Poecile atricapillus,,Todd Deininger,2024-10-01,2024,10,1,1120,United States,US-PA-023,Pennsylvania,Cameron,Elk SF--Quehanna Wild Area--Hoover Farm,41.2266997,-78.1903946,"",,Unspecified,"","",,,,,,,S197144953,"",,,,,Poecile atricapillus,bkcchi,Species,21841,,3.00,1,,,
629564431,Audio,Black-capped Chickadee,Poecile atricapillus,,Denise  McIsaac,2025-01-23,2025,1,23,813,Canada,CA-NL-FO,Newfoundland and Labrador,"St. George's-Stephenville",Kippens--Simons Drive & area,48.5502971,-58.6073392,"",,Unspecified,"","",,,,,,,S210409323,"",,,,,Poecile atricapillus,bkcchi,Species,21841,,.00,0,,,
629545382,Audio,Black-capped Chickadee,Poecile atricapillus,,Andrew W.,2025-01-23,2025,1,23,708,United States,US-MA-017,Massachusetts,Middlesex,Mount Vernon St.,42.4142547,-71.1729537,"",Call,Unspecified,"","",,,,,,,S210358970,"",,,,,Poecile atricapillus,bkcchi,Species,21841,,.00,0,"",,
629516514,Audio,Black-capped Chickadee,Poecile atricapillus,"Junco hyemalis [oreganus Group] -- Dark-eyed Junco (Oregon); Corvus brachyrhynchos -- American Crow",Larry Joseph,2025-01-22,2025,1,22,1130,Canada,CA-BC-KS,British Columbia,Kitimat-Stikine,Larry’s yard,55.2644660,-127.6522200,Adult,"Foraging or Eating; Song",Not Used,"","",,,,,,,S210295003,"",,,,,Poecile atricapillus,bkcchi,Species,21841,,3.50,2,"",,
629505897,Audio,Black-capped Chickadee,Poecile atricapillus,Dryobates villosus [villosus Group] -- Hairy Woodpecker (Eastern),Michael J Good,2025-01-22,2025,1,22,1042,United States,US-ME-009,Maine,Hancock,"Three Pines Bird Sanctuary, Bar Harbor",44.4087829,-68.3345959,"",,Unspecified,"","",,,Android,,,,S210274944,"",,,,,Poecile atricapillus,bkcchi,Species,21841,,.00,0,,,
629500302,Audio,Black-capped Chickadee,Poecile atricapillus,Cyanocitta cristata -- Blue Jay,John Tollefson,2025-01-22,2025,1,22,728,United States,US-IA-113,Iowa,Linn,Marwue Home,42.0262370,-91.6759380,"",Call,Unspecified,"","",,,,,,,S210252539,"",,,,,Poecile atricapillus,bkcchi,Species,21841,,3.33,3,"",,
629476309,Audio,Black-capped Chickadee,Poecile atricapillus,,Estela Quintero-Weldon,2025-01-21,2025,1,21,1636,Canada,CA-ON-MI,Ontario,Middlesex,"16342–16498 Wyton Dr, Thames Centre CA-ON 43.06804, -81.16299",43.0680380,-81.1629860,"",,Unspecified,"","",,,,,,,S210198304,"",,,,,Poecile atricapillus,bkcchi,Species,21841,,.00,0,,,
629465487,Audio,Black-capped Chickadee,Poecile atricapillus,,Louis-Philippe  Thériault,2025-01-21,2025,1,21,1100,Canada,CA-QC-LO,Quebec,Lotbinière,"Saint-Antoine-de-Tilly--Village, Québec, CA (46,664, -71,576)",46.6640156,-71.5763635,"",,Unspecified,"","",,,,,,,S210164763,"",,,,,Poecile atricapillus,bkcchi,Species,21841,,.00,0,,,
629429864,Audio,Black-capped Chickadee,Poecile atricapillus,"Turdus migratorius -- American Robin; Zenaida macroura -- Mourning Dove; Cyanocitta cristata -- Blue Jay; Dryobates villosus [villosus Group] -- Hairy Woodpecker (Eastern)",Chris Wood,2024-12-29,2024,12,29,823,United States,US-NY-055,New York,Monroe,Durand-Eastman Park--Pat Lake,43.2255595,-77.5592391,Adult – 4,Call,Not Used,"","",,,iPhone 15 Pro Max,iPhone 15 Pro Max,,,S207029129,"",,,,,Poecile atricapillus,bkcchi,Species,21841,,2.00,1,"",,
629425425,Audio,Black-capped Chickadee,Poecile atricapillus,,Benjamin Filreis,2025-01-20,2025,1,20,1033,United States,US-PA-101,Pennsylvania,Philadelphia,Glen Foerd on the Delaware,40.0518785,-74.9800801,"",Song,Unspecified,"","",,,iPhone 15 Pro,"",,,S210077563,"",,,,Ongoing irruption . Two seen right by my car. White hockey sticks messy bib Buffy flanks . Slower dees heard along with the cheeseburger song,Poecile atricapillus,bkcchi,Species,21841,,.00,0,"",,
629419836,Audio,Black-capped Chickadee,Poecile atricapillus,,Chase Harris,2025-01-20,2025,1,20,955,United States,US-UT-053,Utah,Washington,Zion NP--Emerald Pools Trail,37.2551485,-112.9612327,"",,Unspecified,"","",,,,,,,S210071039,"",,,,"Merlin identified as Black-capped, not Mountain. Visually and audibly similar to Carolina Chickadee. Will upload photos and audio when able.",Poecile atricapillus,bkcchi,Species,21841,,.00,0,,,
629403804,Audio,Black-capped Chickadee,Poecile atricapillus,Sitta carolinensis -- White-breasted Nuthatch,Andrew W.,2025-01-20,2025,1,20,801,United States,US-MA-017,Massachusetts,Middlesex,Mount Vernon St.,42.4142547,-71.1729537,"",,Unspecified,"","",,,,,,,S210055572,"",,,,,Poecile atricapillus,bkcchi,Species,21841,,.00,0,,,
629403753,Audio,Black-capped Chickadee,Poecile atricapillus,,Andrew W.,2025-01-20,2025,1,20,801,United States,US-MA-017,Massachusetts,Middlesex,Mount Vernon St.,42.4142547,-71.1729537,"",Call,Unspecified,"","",,,,,,,S210055572,"",,,,,Poecile atricapillus,bkcchi,Species,21841,,.00,0,"",,
629375319,Audio,Black-capped Chickadee,Poecile atricapillus,,Rob Porter,2025-01-19,2025,1,19,1409,Canada,CA-ON-HA,Ontario,Hamilton,Hamilton--Woodland Cemetery,43.2853745,-79.8837351,"",,Unspecified,"","",,,,,,,S209949513,"",,,,,Poecile atricapillus,bkcchi,Species,21841,,.00,0,,,
629374086,Audio,Black-capped Chickadee,Poecile atricapillus,,Peter Mundale,2025-01-19,2025,1,19,1251,United States,US-MN-137,Minnesota,St. Louis,Hartley Nature Center,46.8385523,-92.0825529,"",,Unspecified,"","",,,,,,,S209955641,"",,,,,Poecile atricapillus,bkcchi,Species,21841,,.00,0,,,
629351726,Audio,Black-capped Chickadee,Poecile atricapillus,,Courtney Kelly Jett,2025-01-06,2025,1,6,1057,United States,US-NY-109,New York,Tompkins,Ithaca--Volcano Wetlands (1065 ft.),42.4850114,-76.4178164,"",,Unspecified,"","",,,,,,,S208283074,"",,,,,Poecile atricapillus,bkcchi,Species,21841,,.00,0,,,
629347441,Audio,Black-capped Chickadee,Poecile atricapillus,,Courtney Kelly Jett,2025-01-17,2025,1,17,902,United States,US-NY-109,New York,Tompkins,Ithaca--Volcano Wetlands (1065 ft.),42.4850114,-76.4178164,"",,Unspecified,"","",,,,,,,S209764815,"",,,,,Poecile atricapillus,bkcchi,Species,21841,,.00,0,,,
629344796,Audio,Black-capped Chickadee,Poecile atricapillus,,J.J. Blue,2025-01-19,2025,1,19,1157,United States,US-NE-055,Nebraska,Douglas,"1214 N 128th Cir, Omaha US-NE 41.27090, -96.11300",41.2709000,-96.1130040,"",,Unspecified,"","",,,,,,,S209925874,"",,,,Audio for comparison for BCCHs back at home. These chickadees sounded much raspier than ones back home.,Poecile atricapillus,bkcchi,Species,21841,,5.00,2,,,
629335751,Audio,Black-capped Chickadee,Poecile atricapillus,,John M Campbell,2025-01-19,2025,1,19,813,United States,US-PA-049,Pennsylvania,Erie,Erie Zoo/Glenwood Park,42.0964335,-80.0743890,"",,Unspecified,"","",,,,,,,S209886471,"",,,,"Nice variety of BC chickadee calls and songs on first recording, along with American crow and other friends. Second recording is more of a solo performance.",Poecile atricapillus,bkcchi,Species,21841,,.00,0,,,
629335603,Audio,Black-capped Chickadee,Poecile atricapillus,,John M Campbell,2025-01-19,2025,1,19,813,United States,US-PA-049,Pennsylvania,Erie,Erie Zoo/Glenwood Park,42.0964335,-80.0743890,"",,Unspecified,"","",,,,,,,S209886471,"",,,,"Nice variety of BC chickadee calls and songs on first recording, along with American crow and other friends. Second recording is more of a solo performance.",Poecile atricapillus,bkcchi,Species,21841,,.00,0,,,
629326056,Audio,Black-capped Chickadee,Poecile atricapillus,,Gary Young,2024-10-10,2024,10,10,1510,Canada,CA-NB-SJ,New Brunswick,Saint John,Little River Reservoir,45.3070064,-65.9712911,"",Foraging or Eating,Not Used,"","",,,iphone,,,,S198256353,"",,,,,Poecile atricapillus,bkcchi,Species,21841,,.00,0,"",,
629307235,Audio,Black-capped Chickadee,Poecile atricapillus,,Bobby Figarotta,2025-01-18,2025,1,18,1511,United States,US-MN-137,Minnesota,St. Louis,Sax-Zim Bog--Fringed Gentian Bog,47.3123579,-92.6200101,"",,Unspecified,"","",,,,,,,S209799495,"",,,,,Poecile atricapillus,bkcchi,Species,21841,,.00,0,,,
629300644,Audio,Black-capped Chickadee,Poecile atricapillus,,John Tollefson,2025-01-18,2025,1,18,1147,United States,US-IA-095,Iowa,Iowa,Amana Nature Trail,41.7667026,-91.8745422,"",Call,Unspecified,"","",,,,,,,S209775482,"",,,,,Poecile atricapillus,bkcchi,Species,21841,,3.00,2,"",,
629286848,Audio,Black-capped Chickadee,Poecile atricapillus,,Hilary Turner,2025-01-12,2025,1,12,1325,United States,US-ID-081,Idaho,Teton,W 6000 S,43.6361870,-111.1579650,"",Call,Not Used,"","",,,iPhone 12 Mini,,,,S209080695,"",,,,,Poecile atricapillus,bkcchi,Species,21841,,2.00,1,"",,
629285829,Audio,Black-capped Chickadee,Poecile atricapillus,,David Weber,2025-01-18,2025,1,18,929,United States,US-NY-109,New York,Tompkins,Monkey Run--South,42.4642531,-76.4293883,"","Call; Foraging or Eating",Unspecified,"","",,,Zoom F3,Wildtronics Pro Mono Parabolic Microphone,"Wildtronics 22"" Parabola",,S209781331,"",,,"Part of a foraging flock of BCCH, TUTI, RBNU, GCKI, & CAWR. Came in only briefly to a single bout of pishing.",,Poecile atricapillus,bkcchi,Species,21841,,2.00,1,"",,
629285055,Audio,Black-capped Chickadee,Poecile atricapillus,,Carey Purdon,2025-01-18,2025,1,18,1101,Canada,CA-ON-RE,Ontario,Renfrew,"665 Island View Drive, Golden Lake, Ontario, CA (45.59, -77.282)",45.5895922,-77.2822179,"",Foraging or Eating,Not Used,"","",,,Wavepad app. 32-bit Float,Android Samsung Galaxy S21. phone,Audacity: Normalized to -3 DB. ,,S209776931,"",,,5 BCCH were recorded at a feeder.,,Poecile atricapillus,bkcchi,Species,21841,,3.00,1,"",,
629281080,Audio,Black-capped Chickadee,Poecile atricapillus,,Ben Jacques,2025-01-18,2025,1,18,938,United States,US-CO-013,Colorado,Boulder,Hecla Lake,39.9912350,-105.1215380,"",,Unspecified,"","",,,,,,,S209762463,"",,,,,Poecile atricapillus,bkcchi,Species,21841,,.00,0,,,
629278176,Audio,Black-capped Chickadee,Poecile atricapillus,,John Fagan,2025-01-18,2025,1,18,945,United States,US-NY-119,New York,Westchester,sjrny - Montgomery Circle Loop,40.9289322,-73.7888923,"",,Unspecified,"","",,,,,,,S209755560,"",,,,,Poecile atricapillus,bkcchi,Species,21841,,.00,0,,,
629244074,Audio,Black-capped Chickadee,Poecile atricapillus,Colaptes auratus -- Northern Flicker,Sierra Fleischmann,2025-01-11,2025,1,11,1108,United States,US-MT-081,Montana,Ravalli,"Barn Campsite, Canyon Creek, Hamilton, Montana, US (46.251, -114.196)",46.2511654,-114.1958411,"",Call,Unspecified,"","",,,Phone: Galaxy A42 5G ,,,,S209663235,"",,,"Multiple BCCH making calls including beeps, ""phee-bee"", and chirps. NOFL call inlcuded.",,Poecile atricapillus,bkcchi,Species,21841,,4.00,1,"",,
629233436,Audio,Black-capped Chickadee,Poecile atricapillus,,Kayleigh Gustafson,2025-01-17,2025,1,17,1054,United States,US-UT-049,Utah,Utah,Brigham Young University--Bean Museum,40.2529168,-111.6480335,"",,Unspecified,"","",,,Smartphone,,,,S209632200,"",,,,Heard 2 birds singing from different directions,Poecile atricapillus,bkcchi,Species,21841,,2.00,1,,,
